id;tipologia;denominazione;via;civico;latitude;longitude;stelle;categoria;totalePostiLetto;totaleNumeroCamere;numeroSingole;numeroDoppie;numeroTriple;numeroQuadruple;numeroBagni;contattoCellulare;contattoEmail;contattoFacebook;contattoInstagram;contattoTelefono;contattoWebSite;contattoFax;contattoTwitter;accessibileDisabili;accettazioneGruppi;"accettaAnimaliPiccolaTaglia";attivitaSportive;depositoValori;lavanderia;ristorante;tennis;parco;pistaBallo;servizioTelefono;televisione;tennisTavolo;ariaCondizionata;coperturaWifi;piscina;parcheggioCustodito;"venditaAlimentiPropriaProduzione";trasportoClienti;bar;cassettaSicurezza;presaTelefonicaModem;spaccio;campiBocce;campoBeachVolley;campoCalcetto;campoPallavolo;attraccoNatanti;numeroBungalow;numeroDocce;numeroLavadini;numeroPiazzole
155826;"Guest House o Affittacamere";"00146 Roma Holiday and Jubilee House";"Via Efeso";"19";"41.8542663";"12.4749789";;3;;;1;1;;;;"0039 388 831 5427";;"https://www.facebook.com/romeholiday/";;;;;;;;;;;;;;;;;;;;;;;;;;;;;;;;;;;;;
170524;"Guest House o Affittacamere";"100 metres from Vatican Museums Albatros";"Via La Goletta";"19";"41.9083502";"12.4522219";;3;15;6;;;;;;;;;;;;;;;;;;;;;;;;;;;;;;;;;;;;;;;;;;;;;
165749;"Guest House o Affittacamere";"121 Candia";"Via Candia";"121";"41.9075297";"12.4513527";;2;4;;;2;;;;;;;;"0039 06 86975225";;;;;;;;;;;;;;;;;;;;;;;;;;;;;;;;;;;
299915;"Guest House o Affittacamere";"126 Gracchi Suites";"Via dei Gracchi";"126";"41.908445";"12.464006";;;10;5;;;;;;;;;;;;;;;;;;;;;;;;;;;;;;;;;;;;;;;;;;;;;
124787;"Guest House o Affittacamere";"149 Guest House";"Via Marmorata";"149";"41.881432";"12.4769505";;2;7;;1;3;;;;"0039 334 7731404";"info@149guesthouse.it";;;"0039 06 6861118";"www.149guesthouse.it";;;;;;;;true;;;;;;;;true;;;;;;;;;;;;;;;;;;
138549;"Guest House o Affittacamere";"1880 atypical rooms";"Via Nazionale";"66";"41.8994434";"12.4912529";;1;15;;;3;3;;;"0039 366 4122086";"info@1880atypicalrooms.com";"www.facebook.com/atypicalroomsrome?fref=ts";;"0039 06 97613452";"www.atypicalroomsrome.com";"0039 06 97613467";;;;;;;;;;;;;true;;true;true;;;;;;;;;;;;;;;;;
321415;"Guest House o Affittacamere";"2020 Termini Rooms";"Via Rattazzi";"65";"41.898142825924225";"12.504029087648426";;3;6;3;2;1;;;;"329 6962018";"2020TERMINIROOMS@GMAIL.COM";;;;;;;;;;;;;;;;;;;;;;;;;;;;;;;;;;;;;;
117354;"Guest House o Affittacamere";"207 Equatore";"Viale Giulio Cesare";"207";"41.9089709";"12.4562979";;3;4;2;;;;;;;"info@207inn.com";;;"0039 06 39726694";"www.207inn.com";"0039 06 39761022";;;;;;;;;;;;;true;;true;true;;;;true;;;;;;;;;;;;;
182370;"Guest House o Affittacamere";"247 Luxury Guest House o Affittacamere";"Viale di Trastevere";"247";"41.8765105";"12.4659008";;2;11;5;;;;;;;"info@247luxury.it";;;"0039 06 69373451";"www.247luxury.it";;;;;;;;;;;;;;;;;;;;;;;;;;;;;;;;;;
155738;"Guest House o Affittacamere";"3 Inn Ripetta";"Via di Ripetta";"35";"41.9084011";"12.4761238";;2;7;;;2;1;;;"0039 392 116 0132";;;;;;;;;;;;;;;;;;;;;;;;;;;;;;;;;;;;;;;
187438;"Guest House o Affittacamere";"39 Steps Trevi";"Via dei Crociferi";"26";"41.9008557";"12.4818222";;3;5;3;;;;;;;;;;;;;;;;;;;;;;;;;;;;;;;;;;;;;;;;;;;;;
310817;"Guest House o Affittacamere";"4 Mori";"Via Collina";"48";"41.908714";"12.497425";;3;9;6;3;3;;;;;"giolu28@gmail.com";;;"0039 06 4745454";;;;;;;;;;;;;;;;;;;;;;;;;;;;;;;;;;;
326344;"Guest House o Affittacamere";"4 Spaces";"Piazza della Radio";"40";"41.86960750859728";"12.466713736771231";;3;9;4;;3;1;;;"324 9206993";"ANTONIETTADIROSA38@GMAIL.COM";;;;;;;;;;;;;;;;;;;;;;;;;;;;;;;;;;;;;;
327069;"Guest House o Affittacamere";"4 Spaces Guest";"Piazza della Radio";"40";"41.86961198939879";"12.466711134426102";;3;9;4;;3;1;;;"324 9206993";"ANTONIETTADIROSA38@GMAIL.COM";;;;;;;;;;;;;;;;;;;;;;;;;;;;;;;;;;;;;;
315063;"Guest House o Affittacamere";"4 Vatican Rooms";"Circonvallazione Trionfale";"1";"41.909880";"12.448933";;2;5;3;1;2;;;;"0039 333 1841294";"4vaticanrooms@libero.it";;;;"www.4vaticanrooms.com";;;;;;;;;;;;;;;;;;;;;;;;;;;;;;;;;;
314739;"Guest House o Affittacamere";"415 Central Suite";"Via Quintino Sella";"15";"41.907079";"12.496665";;3;8;4;;;;;;;;;;;;;;;;;;;;;;;;;;;;;;;;;;;;;;;;;;;;;
155599;"Guest House o Affittacamere";"5 Rooms Saint Peter Guesthouse";"Via della Stazione di San Pietro";"34";"41.8967469";"12.455368";;3;6;;;3;;;;;;;;;;;;;;;;;;;;;;;;;;;;;;;;;;;;;;;;;;;
155580;"Guest House o Affittacamere";"5 Rooms San Pietro";"Piazza della Stazione di San Pietro";"13";"41.8960537";"12.4555207";;3;4;;;2;;;;;;;;;;;;;;;;;;;;;;;;;;;;;;;;;;;;;;;;;;;
165374;"Guest House o Affittacamere";"504 Corso Suites Roma";"Via del Corso";"504";"41.9083236";"12.4772484";;3;;6;;;;;;;"info@504corsosuites.com";"www.facebook.com/504-Corso-Suites-Roma-845713135516562/";;"0039 06 3213905";"http://504corsosuites.com/";;;;;;;;;;;;;;true;;true;true;;;;true;;;;;;;;;;;;;
170525;"Guest House o Affittacamere";"59 steps trevi";"Via dei Crociferi";"26";"41.9008557";"12.4818222";;3;6;3;;;;;;;;;;;;;;;;;;;;;;;;;;;;;;;;;;;;;;;;;;;;;
164476;"Guest House o Affittacamere";"66 Imperial Inn";"Via del Viminale";"66";"41.8997929";"12.4953298";;1;;;;3;2;;;"0039 333 3520294";"info@66imperialinn.com";"www.facebook.com/66ImperialInn.roma";;"0039 06 48907682";"www.66imperialinn.com";"0039 06 48907682";;;;;;;;;;;;;true;;true;true;;;;;;;;;;;;;;;;;
2446;"Guest House o Affittacamere";"69 Manin Street";"Via Daniele Manin";"69";"41.8989341";"12.4990984";;2;10;5;;;;;;;"info@69maninstreet.com";;;"0039 06 48987856";"www.69maninstreet.com";"0039 06 48907904";;;;;;;;;;;;true;true;;true;;;;;;;;;;;;;;;;;;
182373;"Guest House o Affittacamere";"7 Rooms Guest house o affittacamere";"Via Silvio Pellico";"16";"41.9125097";"12.4604356";;3;17;6;;;;;;"0039 388 9258765";;;;;"sevenroomsroma@gmail.com";;;;;;;;;;;;;;;;;;;;;;;;;;;;;;;;;;
116892;"Guest House o Affittacamere";"74 Crescenzio House";"Via Crescenzio";"74";"41.9059719";"12.4619086";;3;6;4;;;;;;"334 2817170";"info@bebrome.com";;;;"www.bebrome.com";;;;;;;;;;;;;;;;;;;;;;;;;;;;;;;;;;
178138;"Guest House o Affittacamere";"77 Pinky Pillows";"Via Padova";"77";"41.9107082";"12.5206509";;3;6;3;;;;;;"0039 349 3452172";"77pinkypillows@gmail.com";;;;;;;;;;;;;;;;;;;;;;;;;;;;;;;;;;;;;;
172373;"Guest House o Affittacamere";"'900 a piazza del popolo";"Piazzale Flaminio";"9";"41.9120263";"12.4753495";;;12;5;;;;;;;;;;;;;;;;;;;;;;;;;;;;;;;;;;;;;;;;;;;;;
155716;"Guest House o Affittacamere";"900 Liberty Guest House";"Corso Vittorio Emanuele II";"294";"41.8990705";"12.4669437";;2;8;;1;2;1;;;"0039 377 975 6166";;;;;;;;;;;;;;;;;;;;;;;;;;;;;;;;;;;;;;;
170526;"Guest House o Affittacamere";"94 Rooms Vatican - Vigliena";"Via Vigliena";"10";"41.91226";"12.46772";;3;;;;;;;;;;;;;"www.94roomsvatican.com/rooms/vigliena-10/";;;;;;;;;;;;;;;;;;;;;;;;;;;;;;;;;;
52967;"Guest House o Affittacamere";"A 100 metri dal Vaticano";"Viale Giulio Cesare";"151";"41.9089726";"12.4583252";;3;10;4;;;;;;;;;;"0039 06 6874956";;;;;;;;;;;;;;;;;;;;;;;;;;;;;;;;;;;
76180;"Guest House o Affittacamere";"A Beautiful Place in Rome";"Via Vicenza";"20";"41.9029069";"12.5025350";;3;4;1;;;;;;"0039 338 6412262";"info@beautifulplaceinrome.com";;;;"http://beautifulplaceinrome.com";;;;;;;;;;;;;;true;;true;true;;;;;;;;;;;;;;;;;
15667;"Guest House o Affittacamere";"A&C Much More";"Via Palestro";"49";"41.9048958";"12.5042485";;3;12;6;;;;;;"0039 393 286234340";;;;"0039 06 44701152";"www.aecmuchmore.hostel.com";;;;;;;;;;;;;;;;;;;;;;;;;;;;;;;;;;
168845;"Guest House o Affittacamere";"A casa Boschi";"Via Premuda";"3";"41.9137838";"12.4521233";;;7;3;;;;;;"0039 328 711 0461";;;;;;;;;;;;;;;;;;;;;;;;;;;;;;;;;;;;;;;
52969;"Guest House o Affittacamere";"A casa Carra";"Via dello Statuto";"44";"41.8948857";"12.5013275";;2;4;3;;;;;;;"acasacarra@fastwebnet.it";;;"0039 06 4745871 - 845";"www.acasacarra.com";"0039 06 4745871";;;;;;;;;;;;;;;;;;;;;;;;;;;;;;;;;
326582;"Guest House o Affittacamere";"A Casa di Ale";"Via dei Monti di Pietralata";"77";"41.91106233410751";"12.535111395832182";;2;2;1;;1;;;;"328 1340508";"ALEXMALQUORI99@GMAIL.COM";;;;;;;;;;;;;;;;;;;;;;;;;;;;;;;;;;;;;;
312810;"Guest House o Affittacamere";"A casa di Bea & Sara";"Via Principe Amedeo";"85";"41.898159";"12.501024";;3;6;4;;;;;;;;;;;;;;;;;;;;;;;;;;;;;;;;;;;;;;;;;;;;;
174443;"Guest House o Affittacamere";"A casa di Benny";"Piazza Augusto Albini";"20";"41.8645122";"12.4845138";;;5;3;;;;;;"0039 333 592 0597";;;;;;;;;;;;;;;;;;;;;;;;;;;;;;;;;;;;;;;
52972;"Guest House o Affittacamere";"A casa di Getta";"Via Reggio Emilia";"29";"41.9117402";"12.5034473";;2;8;4;;;;;;;;;;"0039 06 8548797";;;;;;;;;;;;;;;true;;true;true;;true;;true;;;;;;;;;;;;;
177751;"Guest House o Affittacamere";"A casa di Giallo";"Via Gela";"67";"41.8788976";"12.5205755";;3;9;3;;;;;;"0039 340 9334577";"acasadigiallo@gmail.com";;;;;;;;;;;;;;;;;;;;;;;;;;;;;;;;;;;;;;
155519;"Guest House o Affittacamere";"A casa di Gio affittacamere";"Via Lorenzo Il Magnifico";"86";"41.91243";"12.52422";;3;8;;;4;;;;"0039 339 218 2488";;;;;;;;;;;;;;;;;;;;;;;;;;;;;;;;;;;;;;;
52973;"Guest House o Affittacamere";"A casa di Giorgia";"Corso Trieste";"62";"41.9197935";"12.5084705";;2;12;6;;;;;;;"gettat@yahoo.it";;;"0039 06 8548797";"www.bbacasadigiorgia.it";"0039 06 8548797";;;;;;;;;;;;;true;;true;true;;true;;;;;;;;;;;;;;;
135369;"Guest House o Affittacamere";"A casa di Manù";"Via Giuseppe Dalla Vedova";"1a";"41.8863284";"12.54308";;3;1;;1;;;;;;;;;;;;;;;;;;;;;;;;;;;;;;;;;;;;;;;;;;;;
116960;"Guest House o Affittacamere";"A casa di Penelope";"Via Varese";"5";"41.9033911";"12.5046968";;3;11;5;;;;;;"0039 929 7004444";"acasadipenelopehotel@gmail.com";;;"0039 0644362944";"www.acasadipenelope.com";;;;;;;;;;;;;;;;;;;;;;;;;;;;;;;;;;
52978;"Guest House o Affittacamere";"A casa di Sonia";"Via del Viminale";"58";"41.9000419";"12.4954864";;2;6;4;;;;;;;;;;;;;;;;;;;;;;;;;;;;;;;;;;;;;;;;;;;;;
117396;"Guest House o Affittacamere";"A Casa di Stefano";"Via Firenze";"43";"41.9029512";"12.4934855";;3;8;5;;;;;;;;;;;;;;;;;;;;;;;;;;;;;;;;;;;;;;;;;;;;;
117351;"Guest House o Affittacamere";"A Casa di Velasco";"Via Varese";"5";"41.903415";"12.5045081";;3;6;;;3;;;;;;;;;;;;;;;;;;;;;;;true;;true;;;;;;;;;;;;;;;;;;
165239;"Guest House o Affittacamere";"A casa Rosy";"Via Arezzo";"30";"41.911714";"12.5187353";;3;4;;;2;;;;;;;;"0039 06 4424 0636";;;;;;;;;;;;;;;;;;;;;;;;;;;;;;;;;;;
15668;"Guest House o Affittacamere";"A.D.";"Viale Opita Oppio";"76";"41.8608787";"12.5500458";;2;12;6;;;;;;;;;;"0039 978459 99 - 06 76983140";"www.cityguesthouse.com";;;;;;;;;;;;;;;;;;;;;;;;;;;;;;;;;;
318117;"Guest House o Affittacamere";"A.D. Suites Tritone";"Via del Tritone";"94";"41.903336975498206";"12.486610038166857";;2;12;6;;6;;;;;;;;;;;;;;;;;;;;;;;;;;;;;;;;;;;;;;;;;;;
310958;"Guest House o Affittacamere";"A Due Passi Dai Musei";"Via Francesco Caracciolo";"30";"41.908657";"12.452164";;3;6;3;;3;;;;"0039 338 6409660";"faberj10@hotmail.it";;;;;;;;;;;;;;;;;;;;;;;;;;;;;;;;;;;;;;
52979;"Guest House o Affittacamere";"A Ottaviano Vatican";"Via Ottaviano";"73";"41.9082230";"12.4578911";;2;6;5;;;;;;"0039 347 3457117";"tdsvatican@fastwebnet.it";;;"0039 06 96038660";"www.ottavianovatican.com";;;;;;;;;;;;;;;;;;;;;;;;;;;;;;;;;;
76183;"Guest House o Affittacamere";"A Peace of Rome";"Via Fabio Massimo";"60";"41.9089508";"12.4621467";;2;13;6;;;;;;"0039 345 6022600";"info@bbapeaceofrome.it";;;"0039 06 3235955";"www.bbapeaceofrome.it";"0039 06 45227255";;;;;;;;;;;;;;;true;true;;;;;;;;;;;;;;;;;
165042;"Guest House o Affittacamere";"A relaxion room";"Via Cairoli";"101";"41.8942703";"12.5078847";;3;;;3;2;;;;;;;;;;;;;;;;;;;;;;;;;;;;;;;;;;;;;;;;;;;
52980;"Guest House o Affittacamere";"A Roma San Pietro Best Bed";"Via Crescenzio";"85";"41.9058788";"12.4614635";;2;15;6;;;;;;;;;;;;;;;;;;;;;;;;;;;;;;;;;;;;;;;;;;;;;
140460;"Guest House o Affittacamere";"A Star Inn";"Via delle Quattro Fontane";"15";"41.9024231";"12.4900973";;3;12;;1;4;1;;;"0039 335 6538960 - 348 7456759";"astarinn@gmail.com";;;"0039 06 64824130";"www.astarinn.com";;;;;;;;;;;;;;;;true;;;;;;;;;;;;;;;;;;
53058;"Guest House o Affittacamere";"A t";"Piazza Barberini";"2";"41.9035170";"12.4880591";;2;7;4;;;;;;;;;;"0039 06 4661058";;;;;;;;;;;;;;;;;;;;;;;;;;;;;;;;;;;
117382;"Guest House o Affittacamere";"A Trastevere da me";"Piazza Sidney Sonnino";"25";"41.8889652";"12.4743152";;3;8;;;4;;;;;"info@atrasteveredame.it";;;"0039 06 45429647";"www.atrasteveredame.it";;;;;;;;;;;;;;true;;true;true;;;;true;;;;;;;;;;;;;
49106;"Guest House o Affittacamere";"A View of Rome";"Piazza Del Risorgimento";"14 ";"41.9066542";"12.457103";;;11;6;;;;;;"0039 345 6022600";"info@bbaviewofrome.it";;;"0039 06 39737845";"www.bbaviewofrome.it";"0039 06 96708720";;;;;;;;;;;;;;;;;;;;;;;;;;;;;;;;;
52982;"Guest House o Affittacamere";"A Vinicius et Mita";"Via Pistoia";"21";"41.8841550";"12.5193369";;3;12;6;;;;;;"0039 320 1848591 - 347 1106411 - 349 4169808";"mitaevinicio@gmail.com";;;;"www.alvillino.com";;;;;;;;;;;;;;;;;;;;;;;;;;;;;;;;;;
249918;"Guest House o Affittacamere";"A World Aparts 68 Barberini";"Via Barberini";"68";"41.9046097";"12.4923976";;2;11;5;;;;;;"3926147039";"sassonbernard@gmail.com";;;;;;;;;;;;;;;;;;;;;;;;;;;;;;;;;;;;;;
260955;"Guest House o Affittacamere";"A World Aparts 68 Barberini";"Via Barberini";"68";"41.904638";"12.492392";;2;11;5;;;;;;;;;;;;;;;;;;;;;;;;;;;;;;;;;;;;;;;;;;;;;
76185;"Guest House o Affittacamere";"Ab House";"Via Solferino";"9";"41.9036147";"12.5013738";;2;13;3;;;;;;;;;;;;;;;;;;;;;;;;;;;;;;;;;;;;;;;;;;;;;
168846;"Guest House o Affittacamere";"ABC Guest House";"Via Famagosta";"4";"41.9102035";"12.4573623";;;9;5;;;;;;"0039 349 93 25 657";"abcfamagosta@gmail.com";;;;"www.abcbb.it";;;;;;;;;;;;;;;;;;;;;;;;;;;;;;;;;;
177486;"Guest House o Affittacamere";"Acanto Room Deluxe guest house o affittacamere";"Via Marco Valerio Corvo";"137";"41.8562778";"12.5607402";;3;;;;;;;;"0039 349 3710146";"acanto.roma@hotmail.it";;;"0039 06 87789330";;;;;;;;;;;;;;;;;;;;;;;;;;;;;;;;;;;
158484;"Guest House o Affittacamere";"Acchiappasogni Guest House";"Via Michele di Lando";"35";"41.9140543";"12.5241201";;3;;;1;2;;;;"0039 389 796 8867";;;;;;;;;;;;;;;;;;;;;;;;;;;;;;;;;;;;;;;
165257;"Guest House o Affittacamere";"Accomodation Rooms";"Via degli Scipioni";"239";"41.9103958";"12.4654505";;2;;;2;3;;;;;;;;;;;;;;;;;;;;;;;;;;;;;;;;;;;;;;;;;;;
155871;"Guest House o Affittacamere";"AD 2015";"Via Bastioni di Michelangelo";"5";"41.9064023";"12.4563646";;2;;4;;;;;;;;"www.facebook.com/ad2015guesthouse/";;"0039 06 8893 6424";;;;;;;;;;;;;;;;;;;;;;;;;;;;;;;;;;;
164482;"Guest House o Affittacamere";"Ad hoc domus";"Via Emanuele Filiberto";"233";"41.8890109";"12.5072276";;3;;;1;3;1;;;;;;;"0039 06 4550 2246";;;;;;;;;;;;;;;;;;;;;;;;;;;;;;;;;;;
304342;"Guest House o Affittacamere";"AD Trastevere Guest house o Affittacamere";"Viale di Trastevere";"118";"41.882492";"12.468258";;3;6;3;;;;;;;;;;;;;;;;;;;;;;;;;;;;;;;;;;;;;;;;;;;;;
312799;"Guest House o Affittacamere";"Ada Home";"Via Montevideo";"2A";"41.921917";"12.496596";;3;16;6;;;;;;;;;;;;;;;;;;;;;;;;;;;;;;;;;;;;;;;;;;;;;
117230;"Guest House o Affittacamere";"Ada Rooms";"Via Cola di Rienzo";"163";"41.9078744";"12.4646579";;3;6;;;3;;;;;"infobb@zanetty.it";;;;"www.adaroomsbb.com";;;;;;;;;;;;;;;;;;;;;;;;;;;;;;;;;;
330557;"Guest House o Affittacamere";"Adelaide Suites";"Via Maria Adelaide";"12";"41.91078748472447";"12.474189869293658";;3;12;5;;3;2;;;;"fabiodicastro7@gmail.com";;;"06 3218382";;;;;;;;;;;;;;;;;;;;;;;;;;;;;;;;;;;
155593;"Guest House o Affittacamere";"Adelina Guesthouse";"Piazza di Porta Maggiore";"20";"41.8915148";"12.5138438";;2;9;;1;4;;;;"0039 338 984 7330";;;;;;;;;;;;;;;;;;;;;;;;;;;;;;;;;;;;;;;
52984;"Guest House o Affittacamere";"Adora suites";"Via Filippo Turati";"28";"41.8988874";"12.5015373";;3;9;5;;;;;;"0039 327 0650044";"info@adorasuite.com";;;;"www.adorasuite.com";;;;;;;;;;;;;;;;;;;;;;;;;;;;;;;;;;
329785;"Guest House o Affittacamere";"Adventor Eco Suites ";"Via Castelfidardo";"51";"41.90549544201429";"12.502048574016541";;2;12;5;;4;;;;;"ADVENTORECOSUITES@GMAIL.COM";;;"06 92949071";;;;;;;;;;;;;;;;;;;;;;;;;;;;;;;;;;;
2497;"Guest House o Affittacamere";Aelius;"Via Volturno";"7";"41.9049600";"12.4990579";;2;11;6;;;;;;;"info@roma-inn.com";;;"0039 06 48907251";"www.roma-inn.com";"0039 06 48907251";;;;;;;;;;;;true;true;;true;;;;;;;true;;;;;;;;;;;
15671;"Guest House o Affittacamere";"Aenea Inn";"Via Urbana";"156";"41.8988950";"12.4964321";;1;12;6;;;;;;"0039 348 4067222";"aenea_rome@yahoo.com";;;;"www.aeneainnrome.com";"0039 06 48916434";;;;;;;;;;;;true;;;true;;;;;;;true;;;;;;;;;;;
76189;"Guest House o Affittacamere";Aesse;"Via del Porto Fluviale";"35";"41.8723131";"12.4768429";;3;11;6;;;;;;;;;;;;;;;;;;;;;;;;;;;;;;;;;;;;;;;;;;;;;
155552;"Guest House o Affittacamere";Aeterno;"Via Appia Nuova";"165";"41.8810374";"12.5154153";;3;7;;17;3;;;;;;;;"0039 06 93562244";;;;;;;;;;;;;;;;;;;;;;;;;;;;;;;;;;;
2484;"Guest House o Affittacamere";"Affitta camere Les Artes";"Via Milazzo";"23";"41.9024330";"12.5050544";;3;5;4;;;;;;;"lesartes@hotmail.com";;;"0039 06 44361531";;;;;;;;;;;;;;;true;;true;;;;;;;;;;;;;;;;;;
76428;"Guest House o Affittacamere";"Affittacamere ""Aries""";"Via XX Settembre";"58/A";"41.9075085";"12.4985290";;2;12;6;;;;;;;"info@affittacamerearies.com";;;"0039 06 42027161";"www.affittacamerearies.com";"0039 06 42014809";;;;;;;;;;;;;;;;;;;;;;;;;;;;;;;;;
155506;"Guest House o Affittacamere";"Affittacamere Belli 36Rooms";"Via Giuseppe Gioacchino Belli";"36";"41.9074396";"12.4715853";;1;;5;;;;;;"0039 339 379 2667";;;;;;;;;;;;;;;;;;;;;;;;;;;;;;;;;;;;;;;
165378;"Guest House o Affittacamere";"Affittacamere Campus Trigoria S.R.L.";"Via Italo Torsiello";"18";"41.7688084";"12.4771796";;2;6;;4;2;;;;"0039 393 9430233";"info@affittacamerecampus.it";"www.facebook.com/Affittacamere-Campus-Trigoria-392242980933920/";;"0039 06 5062155";"http://www.affittacamerecampus.it/";;;;;;;;;;;;;;;;;;;;;;;;;;;;;;;;;;
117390;"Guest House o Affittacamere";"Affittacamere Cappellini";"Via Alfredo Cappellini";"29";"41.8972393";"12.5046872";;3;8;;;4;;;;;;;;"0039 06 4436 2697";;;;;;;;;;;;;;;;;;;;;;;;;;;;;;;;;;;
2376;"Guest House o Affittacamere";"Affittacamere Casa Howard";"Via di Capo Le Case";"18";"41.9038606";"12.4845625";;1;8;5;;;;;;;;;;"0039 06 69924555";"www.casahoward.com";"0039 06 6794644";;;;;;;true;;;;;;true;;true;;;;;;;;;;;;;;;;;;
134815;"Guest House o Affittacamere";"Affittacamere Casa Smeraldo Rooms";"Via Crescenzio";"43";"41.9056073";"12.4640623";;3;8;;1;2;;;;"0039 334 2507096";;;;;"www.casasmeraldo.com";;;;;;;;;;;;;;true;;;true;;;;true;;;;;;;;;;;;;
176526;"Guest House o Affittacamere";"Affittacamere Celimontana 28/4";"Via Celimontana";"28";"41.8881419";"12.4965444";;3;5;3;;;;;;;;;;;;;;;;;;;;;;;;;;;;;;;;;;;;;;;;;;;;;
176527;"Guest House o Affittacamere";"Affittacamere Celimontana 28/5";"Via Celimontana";"28";"41.8881419";"12.4965444";;3;5;3;;;;;;;;;;;;;;;;;;;;;;;;;;;;;;;;;;;;;;;;;;;;;
165384;"Guest House o Affittacamere";"Affittacamere Centro Cavour";"Via Cavour";"233";"41.8943973";"12.4916241";;3;;6;;;;;;;;;;;;;;;;;;;;;;;;;;;;;;;;;;;;;;;;;;;;;
155673;"Guest House o Affittacamere";"Affittacamere Clodia Suite";"Circonvallazione Clodia";"36";"41.9151603";"12.4530869";;3;5;1;;;;;;"0039 366 328 5495";;;;;;;;;;;;;;;;;;;;;;;;;;;;;;;;;;;;;;;
165290;"Guest House o Affittacamere";"Affittacamere Dhali Roma di Dhali Milon";"Via Filippo Turati";"23";"41.8989097";"12.5016544";;3;;5;;;;;;;;;;;;;;;;;;;;;;;;;;;;;;;;;;;;;;;;;;;;;
117009;"Guest House o Affittacamere";"Affittacamere Eur Arcobaleno";"Viale dell'Aeronautica";"60";"41.825958";"12.4769274";;3;7;4;;;;;;"0039 329 5819164";"info@eurarcobaleno.it";;;"0039 06 81904022";"http://eurarcobaleno.altervista.org/wordpress/?lang=it";;;;;;;;;;;;;;;;;;;;;;;;;;;;;;;;;;
53228;"Guest House o Affittacamere";"Affittacamere Flann O'Brien rooms";"Via Napoli";"29/B";"41.9008542";"12.4941397";;2;6;4;;;;;;;;;;;;;;;;;;;;;;;;;;;;;;;;;;;;;;;;;;;;;
52985;"Guest House o Affittacamere";"Affittacamere Flavia";"Via Salvatore Gasbarra";"32";"41.7758784";"12.3357831";;3;11;5;;;;;;;;;;"0039 06 5231033";;;;;;;;;;;;;;;;;;;;;;;;;;;;;;;;;;;
53246;"Guest House o Affittacamere";"Affittacamere Glatimia";"Via Caio Mario";"14/a";"41.9093300";"12.4605037";;2;6;3;;;;;;"0039 333 5005511";"glatimia@libero.it";"https://m.facebook.com/glatimia.affittacamere";;"0039 06 32650162";"www.affittacamereglatimia.it";;;;;;;;;;;;;;true;;true;true;;;;;;;;;;;;;;;;;
139958;"Guest House o Affittacamere";"Affittacamere Gusté Fregene";"Via Fregene";"67";"41.8814767";"12.5094049";;3;7;;1;3;;;;;;;;;;;;;;;;;;;;;;;;;;;;;;;;;;;;;;;;;;;
172354;"Guest House o Affittacamere";"Affittacamere Hotel Euro Roma";"Via Principe Amedeo";"331";"41.8943632";"12.5075869";;3;5;2;;;;;;;;;;;;;;;;;;;;;;;;;;;;;;;;;;;;;;;;;;;;;
138945;"Guest House o Affittacamere";"Affittacamere I sette re";"Via Ardea";"14";"41.8828852";"12.5103301";;3;10;;2;4;;;;;;;;;"www.bbisettere.it";;;;;;;;;;;;;;;;;;;;;;;;;;;;;;;;;;
128482;"Guest House o Affittacamere";"Affittacamere Jiwon";"Via Filippo Turati";"76";"41.8975318";"12.5038247";;3;6;;2;2;;;;;;;;;;;;;;;;;;;;;;;;;;;;;;;;;;;;;;;;;;;
117235;"Guest House o Affittacamere";"Affittacamere La Fontana del Mosé";"Via XX Settembre";"98-99";"41.903966";"12.4936384";;2;13;6;;;;;;;;;;;"www.mosesfountain.com/index2.php";;;;;;;;;;;;;;;;;;;;;;;;;;;;;;;;;;
155625;"Guest House o Affittacamere";"Affittacamere navona central suites";"Via della Scrofa";"22";"41.902181";"12.4751255";;3;;;1;1;2;;;"0039 349 547 7709";;;;;;;;;;;;;;;;;;;;;;;;;;;;;;;;;;;;;;;
177487;"Guest House o Affittacamere";"Affittacamere Next Stop Roma Casilino";"Via Francesco Laparelli";"73";"41.8791706";"12.5396542";;3;6;3;;;;;;"0039 328 8058515";"alan.fantetti@intotherevenue.com";;;;;;;;;;;;;;;;;;;;;;;;;;;;;;;;;;;;;;
140215;"Guest House o Affittacamere";"Affittacamere Ondina";"Via Flaminia";"29";"41.9131699";"12.4750397";;3;10;;;5;;;;"0039 329 5936642";"info@affittacamereondina.it";;;"0039 06 95945835";"www.affittacamereondina.it";"0039 06 93577617";;;;;;;;;;;;true;;;true;true;;;;;;;;;;;;;;;;;
79420;"Guest House o Affittacamere";"Affittacamere Pascià";"Via Prenestina";"170";"41.8919996";"12.5324284";;3;11;5;;;;;;;"info@pasciaroma.com";;;"0039 06 45445630";"www.pasciaroma.com";"0039 06 96708693";;;;;;;;;;;;;true;;true;true;;;;true;;;;;;;;;;;;;
2392;"Guest House o Affittacamere";"Affittacamere Regio";"Via Gioberti";"30";"41.8988668";"12.5006218";;2;8;5;;;;;;;"REGIOAFFITTACAMERE@GMAIL.COM";;;;;;;;;true;;;;;;;;true;true;;true;;;;;;;;;;;;;;;;;;
155603;"Guest House o Affittacamere";"Affittacamere Residenza Edoardo I°";"Via Giovanni Bettolo";"36";"41.911847";"12.4568841";;2;8;;;4;;;;"0039 338 2696593";"info@residenzaedoardoI.com";;;;"www.residenzaedoardoi.com/index.php/it/";;;;;;;;;;;;;;;;true;;;;;;;;;;;;;;;;;;
143402;"Guest House o Affittacamere";"Affittacamere - Rome together guest house";"Via Leone IV";"38";"41.9091305";"12.454987";;3;11;4;;;;;;;;;;"0039 06 4559 9256";;;;;;;;;;;;;;;;;;;;;;;;;;;;;;;;;;;
155672;"Guest House o Affittacamere";"Affittacamere Rooms Monteverde";"Piazza Carlo Alberto Scotti";"20";"41.869676";"12.4457973";;3;;;2;2;;;;;"info@roomsmonteverde.com";;;"0039 06 58233832";"http://www.roomsmonteverde.com/it/home/";;;;;;;;;;;;;;true;;true;true;;;;;;;;;;;;;;;;;
155960;"Guest House o Affittacamere";"Affittacamere Sette A";"Via Antonio Salandra";"1";"41.9057699";"12.4955615";;3;;;;;;;;;"SETTEA.HOTEL@GMAIL.COM";;;;;;;;;;;;;;;;;;;;;;;;;;;;;;;;;;;;;;
155741;"Guest House o Affittacamere";"Affittacamere Terrazza Munira";"Via Emilio Morosini";"14";"41.8859683";"12.4686635";;2;6;4;;;;;;;"suiteduvatican@gmail.com";;;"0039 06 8308 8519";;;;;;;;;;;;;;;;;;;;;;;;;;;;;;;;;;;
127892;"Guest House o Affittacamere";"Affittacamere Thewesley Rome S.R.L.";"Via del Banco di Santo Spirito";"3";"41.9009542";"12.4665661";;1;16;5;;;;;;;"info@thewesleyrome.com";;;"0039 06 68807953";"www.thewesleyrome.com";;;;;;;;;;;;;;;;;true;;;;;;;;;;;;;;;;;
131691;"Guest House o Affittacamere";"Affittacamere Vittoria 2";"Via Enrico Cialdini";"13";"41.8984911";"12.5031599";;3;6;;;3;;;;;;;;;;;;;;;;;;;;;;;;;;;;;;;;;;;;;;;;;;;
307071;"Guest House o Affittacamere";"Affreschi al Vaticano";"Via San Telesforo";"10";"41.897351";"12.457326";;3;7;4;1;3;;;;"0039 338 9821446";"nicodemo.strancia@gmail.com";;;;;;;;;;;;;;;;;;;;;;;;;;;;;;;;;;;;;;
76192;"Guest House o Affittacamere";"Affreschi su Roma";"Via Giuseppe Zanardelli";"7";"41.9005487";"12.4728237";;3;11;4;;;;;;;"affreschisuromanavona@gmail.com";;;"0039 06 68806496";"www.affreschisuroma.com";"0039 06 68806496";;;;;;;;;;;;;true;;true;true;;;;;;;;;;;;;;;;;
85893;"Guest House o Affittacamere";"Afiya guest house o affittacamere";"Via Castelfidardo";"48";"41.9067732";"12.5008667";;;6;2;;;;;;;"afiyarahman48@gmail.com";;;;;;;;;;;;;;;;;;;;;;;;;;;;;;;;;;;;;;
165174;"Guest House o Affittacamere";"Ager Vaticanus";"Piazza Santa Maria delle Grazie";"3";"41.9074457";"12.4491055";;2;6;;;3;;;;"0039 348 154 3520";;;;;"www.agervaticanus.com/";;;;;;;;;;;;;;;;;;;;;;;;;;;;;;;;;;
155592;"Guest House o Affittacamere";"Agli Horti Sallustiani di Fabio Mario Salvatore";"Via Quintino Sella";"3";"41.9066346";"12.4969992";;2;10;;;5;;;;;"info@aglihortisallustiani.com";;;"0039 06 4828639";"www.aglihortisallustiani.com";"0039 06 42010479";;;;;;;;;;;;;;;true;true;;;;;;;;;;;;;;;;;
43116;"Guest House o Affittacamere";"Ai Musei Vaticani Bed Best";"Via Cipro";"56";"41.9066736";"12.4460816";;2;9;5;;;;;;"0039 348 3821288";;;;;;;;;;;;;;;;;;;true;;true;;;;;;;;;;;;;;;;;;
116956;"Guest House o Affittacamere";"Ai Senatori";"Via Caio Mario";"8";"41.9082752";"12.4609091";;3;7;3;;;;;;"0039 328 9538721";"info@aisenatori.com";"www.facebook.com/aisenatoribbRoma";;;"www.aisenatori.com";;;;;;;;;;;;;;true;;true;true;;;;;;;;;;;;;;;;;
117374;"Guest House o Affittacamere";"Aida Charming Rooms";"Viale dei Colli Portuensi";"226";"41.8693879";"12.4432612";;3;10;5;;;;;;"0039 393 9220698";;"http://www.facebook.com/pages/AIDA-Charming-Rooms/126251630842907";;"0039 06 83903507";;;;;;;;;;;;;;;;;;;;;;;;;;;;;;;;;;;
124790;"Guest House o Affittacamere";"Al 38 Viminale Street";"Via del Viminale";"38";"41.8997879";"12.4949452";;2;8;;;4;;;;;;;;"0039 06 4782 3235";;;;;;;;;;;;;;;;;;;;;;;;;;;;;;;;;;;
165442;"Guest House o Affittacamere";"Al 7 Small Luxury Rooms";"Via Caio Mario";"7";"41.90839";"12.46082";;2;6;;;3;;;;;;;;;;;;;;;;;;;;;;;;;;;;;;;;;;;;;;;;;;;
76238;"Guest House o Affittacamere";"Al Borgo 64";"Borgo Pio";"64";"41.9038021";"12.4601031";;2;8;3;;;;;;"0039 392 901 9009";;;;;;;;;;;;;;;;;;;;;;;;;;;;;;;;;;;;;;;
117403;"Guest House o Affittacamere";"Al Casale del Veio";"Via Pomponesco";"Civico 1a - 1b";"42.0389069";"12.4672613";;3;8;6;;;;;;"0039 388 174925";"info@alcasaledelveio.it";;;"0039 06 3347246";"www.alcasaledelveio.it";;;;;;;;;;;;;;true;;true;;;;;true;;;;;;;;;;;;;
168859;"Guest House o Affittacamere";"Al centoundici guest house o affittacamere";"Via Cola di Rienzo";"111";"41.9083558";"12.4661237";;;8;4;;;;;;;;;;;;;;;;;;;;;;;;;;;;;;;;;;;;;;;;;;;;;
52991;"Guest House o Affittacamere";"Al centro storico di Roma";"Via Merulana";"117";"41.8903855";"12.5029734";;2;8;4;;;;;;;"info@alcentrostoricodiroma.it";;;"0039 06 77076607";"www.alcentrostoricodiroma.it";;;;;;;;;;;;;;;;;;;;;;;;;;;;;;;;;;
116815;"Guest House o Affittacamere";"Al giardino delle tartarughe";"Via Dante De Blasi";"31";"41.8601821";"12.4450932";;2;8;;;4;;;;"0039 342 5164587";"info@ilgiardinodelletartarughe.it";;;"0039 06 6533984";"www.ilgiardinodelletartarughe.it";"0039 06 6533984";;;;;;;;;;;;;true;;true;true;;;;;;;;;;;;;;;;;
52993;"Guest House o Affittacamere";"Al gran veliero";"Via Principe Umberto";"59";"41.8942275";"12.5096029";;3;10;5;;;;;;"0039 347 7425699";"info@algranvaliero.com";;;;"www.algranveliero.com";;;;;;;;;;;;;;true;;true;true;;;;;;;;;;;;;;;;;
240164;"Guest House o Affittacamere";"Al Iram Napoleone III guest house o affittacamere";"Via Napoleone III";"22";"41.8971463";"12.5016404";;3;11;5;;;;;;;;;;;;;;;;;;;;;;;;;;;;;;;;;;;;;;;;;;;;;
15672;"Guest House o Affittacamere";"Al Pantheon con Thomas Mann guest house o affittacamere";"Via del Pantheon";"57";"41.8997046";"12.4768483";;3;8;4;;;;;;"0039 333 4391560";"caseromane@msn.com";;;"0039 06 6874956";"www.casaromana.it";"0039 06 39721467";;;;;;;;;;;;;true;;true;;;;;;;;;;;;;;;;;;
117214;"Guest House o Affittacamere";"Al Passetto - St. Peter's Bike";"Via Alberico II";"19";"41.9048327";"12.463083";;3;4;;;2;;;;"0039 329 6540662";"info@alpassetto.it";;;;"www.alpassetto.it";;;;;;;;;;;;;;true;;true;true;;;;;;;;;;;;;;;;;
116957;"Guest House o Affittacamere";"Al Relais";"Via Palermo";"36";"41.8995204";"12.4929951";;3;10;5;;;;;;;;;;;;;;;;;;;;;;;;;;;;;;;;;;;;;;;;;;;;;
126393;"Guest House o Affittacamere";"Al verde pigneto";"Via Antonio Raimondi";"29";"41.8910273";"12.5310307";;3;4;;;2;;;;;;;;;;;;;;;;;;;;;;;;;;;;;;;;;;;;;;;;;;;
52995;"Guest House o Affittacamere";"Al Viminale relais";"Via del Viminale";"38";"41.9003372";"12.4959483";;3;8;4;;;;;;;;;;"0039 06 47823235";;"0039 06 47823592";;;;;;;;;;;;;;;;;;;;;;;;;;;;;;;;;
117041;"Guest House o Affittacamere";"Aladino Inn";"Via Carlo Emanuele I";"22";"41.8962944";"12.5025891";;3;13;5;;;;;;"0039 333 3063512";;;;;"www.aladinoinn.com";;;;;;;;;;;;;;true;;true;;;;;;;;;;;;;;;;;;
120646;"Guest House o Affittacamere";"Alangià Inn";"Via Muzio Clementi";"9";"41.9055093";"12.4721943";;3;8;3;;;;;;;"0039 393 1766647";;;"0039 06 323 0068";"www.alangiainn.it";;;;;;;;;;;;;;;;;;;;;;;;;;;;;;;;;;
327955;"Guest House o Affittacamere";Alba;"Via Candia";"111";"41.907797652304446";"12.451906415792951";;3;6;3;;3;;;;"347 7490771";"albabedandbreakfast@gmail.com";;;;;;;;;;;;;;;;;;;;;;;;;;;;;;;;;;;;;;
76239;"Guest House o Affittacamere";"Alba Domus";"Circonvallazione Nomentana";"488";"41.9122870";"12.5278578";;2;12;6;;;;;;;"albadomusroma@gmail.com";;;"0039 328 2455194";"www.albadomusroma.com";;;;;;;;;;;;;;true;;true;true;;;;true;;;;;;;;;;;;;
178936;"Guest House o Affittacamere";"Albachiara Guest House o Affittacamere";"Via Albalonga";"60";"41.8794799";"12.5130969";;3;6;4;;;;;;;;;;;;;;;;;;;;;;;;;;;;;;;;;;;;;;;;;;;;;
15673;"Guest House o Affittacamere";Albatros;"Via Carlo Alberto";"13";"41.8968460";"12.5001291";;3;;4;;9;;;;;"maurizio.memoli@gaviatour.it";;;"0039 06 44702259";;;;;;;;;;;;;;true;true;;true;;;;;;;;;;;;;;;;;;
15674;"Guest House o Affittacamere";Albrist;"Viale Opita Oppio";"76";"41.8608787";"12.5500458";;2;11;6;;;;;;;;;;;;"0039 06 76967961";;;;;;;;;;;;;true;;true;;;;;;;;;;;;;;;;;;
76258;"Guest House o Affittacamere";"Alessandro a San Pietro  Best Bed";"Via Silvio Pellico";"44";"41.9132446";"12.4593369";;3;7;5;;;;;;"0039 348 3210108 - 348 3821288";"ftraldi@tiscali.it";"https://www.facebook.com/RomaSanPietroBnB";;"0093 06 6878205";"www.ftraldi.it";;;;;;;;true;;;;;;;;true;;;;;;;;;;;;;;;;;;
2464;"Guest House o Affittacamere";Alex;"Piazza del Pigneto";"15";"41.8899164";"12.5231126";;2;12;6;;;;;;;"alex@libero.it";;;"0039 06 77250734";;"0039 06 77250734";;;;;;;;;;;;;;;;;;;;;;;;;;;;;;;;;
118711;"Guest House o Affittacamere";Alex;"Via Antonio Baiamonti";"2";"41.9146131";"12.4598563";;3;11;6;;;;;;;;;;;;;;;;;;;;;;;;;;;;;;;;;;;;;;;;;;;;;
119576;"Guest House o Affittacamere";"Alex e Cris";"Via Giordano Bruno";"47";"41.912172";"12.452161";;3;4;;;2;;;;;"bebalexecris@gmail.com";"https://www.facebook.com/bebalexecris?ref=hl&ref_type=bookmark";;;"www.bebalexecris.com";;;;;;;;;;;;;;true;;true;true;;;;;;;;;;;;;;;;;
52997;"Guest House o Affittacamere";"Alex e Daphne";"Via degli Avignonesi";"20";"41.9030185";"12.4873819";;3;5;3;;;;;;"0039 366 3876280";"info@daphne-rome.com";;;"0039 06 89538471 |  06 89345781";"www.daphne-rome.com";"0039 06 233210967";;;;;;;;;;;;;true;;;;;;;;;;;;;;;;;;;;
52998;"Guest House o Affittacamere";"Alex e Sergio House";"Via Milazzo";"23";"41.9024330";"12.5050544";;2;6;4;;;;;;;;;;;;"0039 06 44362387";;;;;;;;;;;;;;;;;;;;;;;;;;;;;;;;;
52999;"Guest House o Affittacamere";"Alex Inn";"Via Emilia";"47";"41.9075791";"12.4885881";;1;8;4;;;;;;;;;;"0039 06 97273360";"http://www.alexinnrome.com/italiano/";"0039 06 97273150";;;;;;;;;;;;;;;;;;;;;;;;;;;;;;;;;
139960;"Guest House o Affittacamere";"Alex Luxury Suites 1";"Via Gian Domenico Romagnosi";"1B";"41.9113655";"12.4739534";;3;15;6;;;;;;;"info@alexluxurysuites.com";;;"0039 06 3201858";"www.alexluxurysuites.com";;;;;;;;;;;;;;;;true;true;;;;;;;;;;;;;;;;;
140878;"Guest House o Affittacamere";"Alex Luxury Suites 10";"Via Gian Domenico Romagnosi";"1B";"41.9113655";"12.4739534";;3;13;;;5;1;;;;;;;;;;;;;;;;;;;;;;;;;;;;;;;;;;;;;;;;;;
76261;"Guest House o Affittacamere";"Alex Place";"Viale Castro Pretorio";"25 ";"41.9030431";"12.5069405";;3;12;5;;;;;;;"info@palmaresidence.com";;;"0039 06 4559 6734";"https://www.alexplacerome.com";;;;;;;;;;;;;;;;true;true;;;;;;;;;;;;;;;;;
155667;"Guest House o Affittacamere";"Alex's Guest House";"Via Cesare Pascarella";"46";"41.8766197";"12.4671079";;2;6;;;3;;;;"0039348 510 1728";;;;;;;;;;;;;;;;;;;;;;;;;;;;;;;;;;;;;;;
303203;"Guest House o Affittacamere";"Alfa & Omega Di Kostelyek Andriy guest house o affittacamere";"Via Milazzo";"3";"41.901727";"12.504305";;2;6;2;;;;;;;;;;;;;;;;;;;;;;;;;;;;;;;;;;;;;;;;;;;;;
15675;"Guest House o Affittacamere";Alfredo;"Via Napoleone III";"48";"41.896707";"12.502212";;3;7;4;;;;;;;;;;"0039 06 4467624";;"0039 06 4467624";;;;;;;;;;;;;true;;;;;;;;;;;;;;;;;;;;
53000;"Guest House o Affittacamere";"Alibert suite";"Via Margutta";"61";"41.9073393";"12.4809633";;2;12;6;;;;;;;"info@alibertsuite.it";;;"0039 06 32629045";"https://www.alibertsuite.it/";;;;;;;;;;;;;;;;;;;;;;;;;;;;;;;;;;
122725;"Guest House o Affittacamere";"Alice's house The King";"Viale Manzoni";"26";"41.8900964";"12.5053989";;3;10;4;;;;;;;;;;;;;;;;;;;;;;;;;;;;;;;;;;;;;;;;;;;;;
76402;"Guest House o Affittacamere";"All Comfort Astoria Rooms";"Via Giovanni Maria Lancisi";"31";"41.9089822";"12.5106850";;3;13;6;;;;;;;;;;"0039 06 44260829";"www.astoriapalace.it";;;;;;;;;;;;;;;;;;;;;;;;;;;;;;;;;;
327960;"Guest House o Affittacamere";"All Inn Rome Umberto";"Via Principe Umberto";"37";"41.89482344059499";"12.508790339118203";;2;6;3;;3;;;;"333 3452199";"p.umberto@allinrome.it";;;;;;;;;;;;;;;;;;;;;;;;;;;;;;;;;;;;;;
168860;"Guest House o Affittacamere";"All'ombra del cupolone di Walter Fiorucci Guest House";"Viale delle Mura Aurelie";"19";"41.8998939";"12.4566892";;;6;3;;;;;;;"info@alcupolone.it";;;"0039 06 9964472";"www.allombradelcupolone.it";;;;;;;;;;;;;;true;;true;true;;;;;;;;;;;;;;;;;
117353;"Guest House o Affittacamere";"All'Orologio Guest House";"Via dei Banchi Nuovi";"47";"41.8993944";"12.4676487";;3;8;;;4;;;;"0039 335 5207284";"info@orologiobb.com";;;;"http://orologiobb.com/";;;;;;;;;;;;;;;;true;true;;;;;;;;;;;;;;;;;
53002;"Guest House o Affittacamere";"All Seasons";"Viale Manzoni";"81";"41.8935399";"12.5101033";;2;8;4;;;;;;"0039 349 1149462 - 338 4926025";"vernon53@libero.it";;;;"www.bbseason.com";;;;;;;;;;;;;;;;true;true;;;;;;;;;;;;;;;;;
81311;"Guest House o Affittacamere";"Alla Basilica Rooms";"Viale Carlo Felice";"77";"41.8874158";"12.5113407";;3;4;2;;;;;;"0039 329 313 0292";;;;;;;;;;;;;;;;;;;;;;;;;;;;;;;;;;;;;;;
187453;"Guest House o Affittacamere";"Alla Renella Guest House o Affittacamere";"Via Arenula";"41";"41.8925747";"12.4750903";;;7;4;;;;;;;;;;;;;;;;;;;;;;;;;;;;;;;;;;;;;;;;;;;;;
15677;"Guest House o Affittacamere";"Alla Roma dei Papi";"Piazza Adriana";"5";"41.904675";"12.467277";;1;10;6;;;;;;;"info@romadeipapi.com";;;"0039 06 68192719";;"0039 06 68134683";;;;;;;;;;;;true;true;;true;;;;;;;true;;;;;;;;;;;
53004;"Guest House o Affittacamere";"Alle basiliche di Roma";"Via dello Statuto";"44";"41.8948857";"12.5013275";;3;9;5;;;;;;;;;;"0039 06 4745781";;;;;;;;;;;;;;;;;;;;;;;;;;;;;;;;;;;
324579;"Guest House o Affittacamere";"Alloggio per uso turistico 11039";"Via di San Francesco di Sales";"76";"41.89441825796192";"12.464177805952126";;;2;;;;;;;;;;;;;;;;;;;;;;;;;;;;;;;;;;;;;;;;;;;;;;
76404;"Guest House o Affittacamere";"Alma de Roma";"Via Gaeta";"64";"41.9044883";"12.5004919";;3;11;6;;;;;;;"info@almaderoma.it";;;"0039 06 49774919";"www.almaderoma.it";;;;;;;;;;;;;;;;true;true;;;;;;;;;;;;;;;;;
155903;"Guest House o Affittacamere";"Alma Resort";"Via Alessio Olivieri";"20";"41.7436302";"12.3728056";;1;;4;;;;;;"0039 339 842 7373";;;;;;;;;;;;;;;;;;;;;;;;;;;;;;;;;;;;;;;
76405;"Guest House o Affittacamere";"Almes Roma";"Via Augusto Aubry";"3";"41.9151768";"12.4544493";;3;5;2;;;;;;"0039 339 1450627";"info@almesromabb.com";;;"0039 06 39751232";"www.almesromabb.com";;;;;;;;;;;;;;true;;true;true;;;;;;;;;;;;;;;;;
76406;"Guest House o Affittacamere";"Almi Rooms";"Via dell'Assunzione";"11";"41.9134017";"12.4150519";;2;6;3;;;;;;"0039 333 4485650";"info@almirooms.it";;;;"www.almirooms.it";;;;;;;;;;;;;;;;true;true;;;;;;;;;;;;;;;;;
174444;"Guest House o Affittacamere";"Aloha 1 Guest house o affittacamere";"Via Principe Eugenio";"15";"41.8940408";"12.5067446";;3;7;3;;;;;;"0039 329 4222074 - 339 6913998";"accorome@gmail.com";;;"0039 06 895 265 72";"http://www.aloharome.com/";"0039 06 89526572";;;;true;;;;;;;;;;;;true;;;;;;;;;;;;;;;;;
318634;"Guest House o Affittacamere";Altair;"Via Taranto";"90";"41.88410982956915";"12.516325767483606";;2;7;4;1;3;;;;;;;;;;;;;;;;;;;;;;;;;;;;;;;;;;;;;;;;;;;
182822;"Guest House o Affittacamere";"Althea Inn Roof Terrace Guest house o affittacamere";"Via Dei Conciatori";"9";"41.8744656";"12.478856";;1;12;6;;;;;;"0039 339 4353717";"info@altheainn.com";;;"0039 06 98932666";"http://altheainnroofterrace.com/it/index.php";;;;;;;;;;;;;;;;true;true;;;;;;;;;;;;;;;;;
155961;"Guest House o Affittacamere";"Amalia Suites";"Via Germanico";"66";"41.9078039";"12.4576339";;3;;6;;;;;;"0039 347 5046393";"gianlucaconsoli@yahoo.it";"https://www.facebook.com/Amalia-Suites-1115853831780208/";;;"https://www.amaliasuites.com/it-it";;;;;;;;;;;;;true;;;true;true;;;;true;;;;;;;;;;;;;
75873;"Guest House o Affittacamere";"Amaranto Romano";"Via Nazionale";"243";"41.9013511";"12.4941939";;3;13;6;;;;;;;"info@amarantoromano.it";;;"0039 06 48906830";"www.amarantoromano.it";"0039 06 48986849";;;;true;;;;;;;;;true;;;true;;;;true;;;;;;;;;;;;;
168862;"Guest House o Affittacamere";"Amber House guest house o affittacamere";"Via dei Gracchi";"84";"41.9079512";"12.4618278";;;6;2;;;;;;;;;;"0039 06 320 8226";;;;;;;;;;;;;;;;;;;;;;;;;;;;;;;;;;;
327387;"Guest House o Affittacamere";"Ambra Bed";"Via Collatina";"960";"41.92100920634231";"12.663486271184095";;3;4;3;2;1;;;;"327 4794721";"GOODSERVICES@OUTLOOK.IT";;;;;;;;;;;;;;;;;;;;;;;;;;;;;;;;;;;;;;
165377;"Guest House o Affittacamere";"Ambra Jovinelli";"Via Principe Umberto";"13";"41.8951824";"12.5079563";;3;3;;3;;;;;"0039 347 806 6579";;;;;;;;;;;;;;;;;;;;;;;;;;;;;;;;;;;;;;;
158561;"Guest House o Affittacamere";"AMFE Guest House o Affittacamere";"Via Cesare Battisti";"133";"41.896961";"12.4827362";;3;;;1;;1;;;;;;;;;;;;;;;;;;;;;;;;;;;;;;;;;;;;;;;;;;
94102;"Guest House o Affittacamere";"Amicus Romae Guest house o affittacamere";"Via Quintilio Varo";"33";"41.8541726";"12.5643568";;3;5;3;;;;;;"0039 327 8270495";"info@amicusromae.it";;;"0039 - 06 64781130";;;;;;;;;;;;;;;true;;true;true;;;;true;;;;;;;;;;;;;
53009;"Guest House o Affittacamere";Amor;"Viale Giulio Cesare";"183";"41.9091610";"12.4571560";;3;9;7;;;;;;"0039 335 5689388";;;;;;;;;;;;;;;;;;;;;;;;;;;;;;;;;;;;;;;
135016;"Guest House o Affittacamere";Amor;"Piazza di Pasquino";"69";"41.8976304";"12.472238";;2;8;;;4;;;;;;;;;;;;;;;;;;;;;;;;;;;;;;;;;;;;;;;;;;;
75896;"Guest House o Affittacamere";"Amor di Ab Enterprise";"Viale Giulio Cesare";"183";"41.9090130";"12.4572977";;3;10;5;;;;;;;;;;;;;;;;;;;;;;;;;;;;;;;;;;;;;;;;;;;;;
165052;"Guest House o Affittacamere";"Amoroma Suite";"Via Volturno";"2";"41.9050699";"12.4991284";;3;;;1;2;1;;;;;;;"06 488 1806";"www.amoromasuite.com";;;;;;;;;;;;;;true;;true;;;;;;;;;;;;;;;;;;
53011;"Guest House o Affittacamere";"Amy's house";"Via Principe Amedeo";"85/A";"41.8984609";"12.5009381";;2;6;5;;;;;;;"info@lacasadiamy.com";;;"0039 06 4466854";"www.lacasadiamy.com/italiano/";"0039 06 4466854";;;;;;;;;;;;;true;;true;;;;;true;;;;;;;;;;;;;
118356;"Guest House o Affittacamere";Anakin;"Via Palestro";"87";"41.9034119";"12.5060695";;2;5;4;;;;;;;;;;"0039 06 445 7164";;;;;;;;;;;;;;;;;;;;;;;;;;;;;;;;;;;
319181;"Guest House o Affittacamere";"Anas Prime Place";"Via Palestro";"56";"41.90468313425685";"12.504768369007053";;;9;6;3;3;;;;"389 2553377";"acmuchmore49@gmail.com";;;;;;;;;;;;;;;;;;;;;;;;;;;;;;;;;;;;;;
117196;"Guest House o Affittacamere";"Anastasio 416 Rooms";"Via Anastasio II";"416";"41.9046259";"12.4443107";;3;6;3;;;;;;"0039 349 6950406";;;;;;;;;;;;;;;;;;;;;;;;;;;;;;;;;;;;;;;
2400;"Guest House o Affittacamere";"Ancient Rome";"Via Nazionale";"230";"41.9008565";"12.4934191";;2;12;6;1;4;1;;;;;;;"0039 06 4741473";;"0039 06 484562";;;;;;;;;;;;true;true;;true;;;;;;;true;;;;;;;;;;;
140876;"Guest House o Affittacamere";"Andenis Luxury House";"Piazza del Fante";"10";"41.920343";"12.466921";;2;9;5;1;4;;;;"351 5722988";"enea3asrls@gmail.com";;;;"www.guesthouseinrome.com/";;;;;;;;;;;;;;;;true;true;;;;;;;;;;;;;;;;;
328908;"Guest House o Affittacamere";"Andenis Luxury House 3a";"Piazza del Fante";"10";"41.92034920045967";"12.466926560421646";;2;8;5;2;3;;;;"351 5722988";"enea3asrls@gmail.com";"www.facebook.com/andenisluxuryhouse";"www.instagram.com/andenisluxuryhouse/?hl=it";;"www.guesthouseinrome.com/";;;;;;;;;;;;;;;;;;;;;;;;;;;;;;;;;;
2385;"Guest House o Affittacamere";Andromeda;"Via Collina";"48";"41.9088136";"12.4972392";;2;8;4;;;;;;;;;;"0039 06 4820128";;"0039 06 4743266";;;;;;;true;;;;;;;;;;;;;;;;;;;;;;;;;;
155723;"Guest House o Affittacamere";"Anfiteatro Suite";"Via Ostilia";"59";"41.8877937";"12.4947516";;2;8;;1;2;1;;;"0039 340 5826754";"fabrizio@rgpromotion.it";;;;"https://anfiteatro-suite-it.book.direct/it-it";;;;;;;;;;;;;;true;;true;true;;;;true;;;;;;;;;;;;;
53012;"Guest House o Affittacamere";"Angel House";"Via Genova";"24";"41.8992515";"12.4921668";;2;5;3;;;;;;;;;;"0039 06 5098534";;;;;;;;;;;;;;;;;;;;;;;;;;;;;;;;;;;
155873;"Guest House o Affittacamere";"Angel Rooms";"Viale Castro Pretorio";"25";"41.9034088";"12.5071374";;3;;;;1;4;;;;;;;;;;;;;;;;;;;;;;;;;;;;;;;;;;;;;;;;;;
76412;"Guest House o Affittacamere";"Angeli di Matilde";"Via Muzio Attendolo";"26";"41.8917582";"12.5352739";;3;12;5;;;;;;"0039 328 9342512 - 333 4333359";"Fiorsmile@yahoo.it";;;"0039 06 2752155";;"0039 06 2752155";;;;;;;;;;;;;;;;;;;;;;;;;;;;;;;;;
2465;"Guest House o Affittacamere";Angelica;"Via dei Mille";"41/A";"41.9017770";"12.5056075";;2;6;4;;;;;;;;;;"0039 06 44361528";;;;;;;;;;;;;;;true;;true;;;;;;;;;;;;;;;;;;
316424;"Guest House o Affittacamere";"Angelina Rooms in Rome di Filippo Pesa";"Via Felice Cavallotti";"73";"41.878938";"12.461923";;;7;4;1;3;;;;"0039 340 2583699";"info@angelinaroomsinrome.com";;;;;;;;;;;;;;;;;;;;;;;;;;;;;;;;;;;;;;
76415;"Guest House o Affittacamere";"Angelini Bed Rooms";"Via Cavour";"124";"41.8969315";"12.4958315";;3;8;4;;;;;;;;"https://www.facebook.com/Angelini-Bedrooms-116624321708080/";;"0039 06 4891 3224";;;;;;;;;;;;;;;;;;;;;;;;;;;;;;;;;;;
182366;"Guest House o Affittacamere";"Angelo Guesthouse Guest house o affittacamere";"Piazza della Rovere";"115";"41.8995978";"12.4621041";;3;7;4;;;;;;;;;;;;;;;;;;;;;;;;;;;;;;;;;;;;;;;;;;;;;
117361;"Guest House o Affittacamere";"Angels in Rome";;;;;;3;8;4;;;;;;"0039 338 3493321";"info@angelsinrome.it";;;;"www.angelsinrome.it";;;;;;;;;;;;;;;;true;true;;;;;;;;;;;;;;;;;
183148;"Guest House o Affittacamere";"Angolo di Roma S.R.L.S.";"Via Cairoli";"31";"41.8924189";"12.5060395";;3;6;3;;;;;;;"info.angolodiroma@gmail.com";;;;;;;;;;;;;;;;;;;;;;;;;;;;;;;;;;;;;;
307278;"Guest House o Affittacamere";"Angolo sul Giardino Guest House";"Via dei Gozzadini";"14";;;;2;7;4;1;3;;;;"0039 333 1147304";;;"www.instagram.com/angolosulgiardino/";;;;;;;;;;;;;;;;;;;;;;;;;;;;;;;;;;;;
301289;"Guest House o Affittacamere";"Anice guest house o affittacamere";"Via Prenestina";"370";"41.894524";"12.556824";;;8;4;;;;;;;;;;;;;;;;;;;;;;;;;;;;;;;;;;;;;;;;;;;;;
168867;"Guest House o Affittacamere";"Anna Guest House";"Via Giuseppe De Camillis";"4";"41.8999159";"12.4289628";;3;10;5;;;;;;;"annaresortroma@gmail.com";;;"0039 334 9694861 - 335 7692628";"http://www.annaguesthouse.it/";;;;;;;;true;;;;;;;;true;true;;;;true;;;;;;;;;;;;;
286774;"Guest House o Affittacamere";"Anna guest house o affittacamere";"Lungotevere delle Armi";"22";"41.916429";"12.469360";;2;11;6;;;;;;;"info@villalaetitia.com";;;"0039 06 3226776";;;;;;;;;;;;;;;;;;;;;;;;;;;;;;;;;;;
165454;"Guest House o Affittacamere";"Anno Domini";"Via Anastasio II";"5";"41.895562";"12.4383323";;3;;;;2;1;;;"0039 337 1337085";"info@annodominiroma.it";;;"0039 06 6380088";"http://www.annodominiroma.it/";;;;;;;;;;;;;;true;;true;;;;;;;;;;;;;;;;;;
316915;"Guest House o Affittacamere";"Antaurcris Suite Piazza Venezia ";"Via del Corso";"287";"41.89711";"12.48221";;2;5;2;;1;1;;;;"s.corigliano@studioproto.it";;;;;;;;;;;;;;;;;;;;;;;;;;;;;;;;;;;;;;
117438;"Guest House o Affittacamere";"Antica Dimora Contessa Arrivabene";"Viale Tito Livio";"28";"41.9156798";"12.4445099";;3;24;6;;;;;;;"info@navonagovernovecchio.com";;;"0039 06 45429400";"www.ilburcardo.com/contessa-arrivabene/index.html";"0039 06 99334019";;;;;;;;;;;;;;;true;true;;;;true;;;;;;;;;;;;;
76417;"Guest House o Affittacamere";"Antica Dimora De Michaelis";"Via dei Coronari";"14";"41.9004636";"12.4716339";;3;10;3;;;;;;;;;;"0039 06 45429400";"www.ilburcardo.com/demichaelis/index.html";"0039 06 99334019";;;;;;;;;;;;;;;;;;;;;;;;;;;;;;;;;
325758;"Guest House o Affittacamere";"Antica Dimora del Corso";"Via delle Convertite";"5";"41.90282039589381";"12.480007869549584";;1;12;6;1;4;1;;;;"info@anticaresidenza.it";;;"06 39378109";;;;;;;;;;;;;;;;;;;;;;;;;;;;;;;;;;;
76418;"Guest House o Affittacamere";"Antica Dimora dell'Orso";"Vicolo dell'Orso";"55";"41.9018848";"12.4741706";;3;11;5;;;;;;;"info@navonagovernovecchio.com";;;"0039 06 45429400";"https://www.ilburcardo.com/orso/";"0039 06 99334019";;;;;;;;;;;;;;;true;true;;;;true;;;;;;;;;;;;;
76420;"Guest House o Affittacamere";"Antica Dimora Horti Luculliani";"Via del Corso";"36";"41.9083673";"12.4773363";;3;7;5;;;;;;;;;;"0039 06 45429400";"www.ilburcardo.com/horti-viadelcorso/index.htm";"0039 06 99334019";;;;;;;;;;;;;;;;;;;;;;;;;;;;;;;;;
122900;"Guest House o Affittacamere";"Antica Locanda dell'orso guest house o affittacamere";"Via dell'Orso";"14";"41.901908";"12.4725674";;3;8;6;4;2;;;;;"info@anticalocandadellorso.com";;;"0039 06 68802420";"www.anticalocandadellorso.com";;;;;;;;;;;;;;;;;;;;;;;;;;;;;;;;;;
155677;"Guest House o Affittacamere";"Antica Locanda di Piazza del Popolo";"Via Gian Domenico Romagnosi";"3";"41.9121226";"12.4738203";;2;7;;;2;1;;;;"locandadelpopolo@gmail.com";;;"0039 06 68802420";"www.locandapiazzapopolo.com";;;;;;;;;;;;;;true;;;true;;;;true;;;;;;;;;;;;;
234055;"Guest House o Affittacamere";"Antica Locanda di Piazza Navona Guest house o affittacamere";"Via dell'Orso";"14";"41.9018934";"12.4727344";;;9;6;;;;;;;;;;"0039 06 6880 2420";;;;;;;;;;;;;;;;;;;;;;;;;;;;;;;;;;;
117415;"Guest House o Affittacamere";"Antica Residenza C";"Via dell'Arco della Ciambella";"19";"41.8968455";"12.4769666";;3;11;6;;;;;;;;;;;;;;;;;;;;;;;;;;;;;;;;;;;;;;;;;;;;;
325757;"Guest House o Affittacamere";"Antica Residenza del Corso";"Via delle Convertite";"5";"41.90282039589381";"12.480007869549584";;2;12;6;;5;1;;;;"info@anticaresidenza.it";;;"06 39378109";;;;;;;;;;;;;;;;;;;;;;;;;;;;;;;;;;;
155966;"Guest House o Affittacamere";"Antico Relais a Trastevere";"Via delle Fratte di Trastevere";"44";"41.8877778";"12.4721194";;2;10;;;5;;;;"0039 333 8146585";"info@anticorelaistrastevere.com";;;;"http://www.anticorelaisatrastevere.com/";;;;;;;;;;;;;;;;;true;;;;;;;;;;;;;;;;;
53050;"Guest House o Affittacamere";Antonietta;"Via Castelfidardo";"68";"41.9054588";"12.5022273";;2;3;2;;;;;;;;;;;;;;;;;;;;;;;;;;;;;;;;;;;;;;;;;;;;;
313585;"Guest House o Affittacamere";"Antonio Mauro";"Via delle Fratte di Trastevere";"51";"41.887984";"12.471948";;2;4;2;;2;;;;"0039 392 7263298";"antoniomauro28592@gmail.com";;;;;;;;;;;;;;;;;;;;;;;;;;;;;;;;;;;;;;
116830;"Guest House o Affittacamere";"Antonio rooms";"Piazza dell'Unità";"13";"41.9077699";"12.4614724";;2;;;1;2;1;;;;;;;;;;;;;;;;;;;;;;;;;;;;;;;;;;;;;;;;;;
168871;"Guest House o Affittacamere";"Apartrooms76 Guest House o Affittacamere";"Viale Delle Milizie";"76";"41.9118883";"12.4600675";;3;6;4;;;;;;;;;;;;;;;;;;;;;;;;;;;;;;;;;;;;;;;;;;;;;
80967;"Guest House o Affittacamere";"Apia suite";"Via Bocca di Leone";"25";"41.9055144";"12.4803106";;3;4;1;;;;;;;;;;;;;;;;;;;;;;;;;;;;;;;;;;;;;;;;;;;;;
76425;"Guest House o Affittacamere";"Apollo Suite";"Via Dei Serpenti";"111";"41.8966361";"12.4900413";;2;5;2;;;;;;;;;;;;;;;;;;;;;;;;;;;;;;;;;;;;;;;;;;;;;
117200;"Guest House o Affittacamere";"Appia Avenue 639";"Via Appia Nuova";"639";"41.867048";"12.5307636";;3;14;5;;;;;;"0039 334 2946034 - 348 7334879";"appia639@tiscali.it";;;"0039 45470918";"www.appia639.it";;;;;;;;;;;;;;;;;;;;;;;;;;;;;;;;;;
2432;"Guest House o Affittacamere";"Appia Nuova";"Via Appia Nuova";"555";"41.8704869";"12.528519";;2;6;3;;;;;;;"roma@tourmagazine.it";;;"0039 06 7880486";"www.accomodationappianuova.com";"0039 06 7811358";;;;;;;;;;;;;true;;true;;;;;;;;;;;;;;;;;;
176530;"Guest House o Affittacamere";"Apple Moon";"Viale Giulio Cesare";"78";"41.9094181";"12.4572172";;2;7;3;;;;;;;"info@applemoon.it";;;"0039 06 37512129";"www.applemoon.it";;;;;;;;;;;;;;;;;;;;;;;;;;;;;;;;;;
79325;"Guest House o Affittacamere";Applemoon;"Viale Giulio Cesare";"78";"41.9092818";"12.4570874";;3;6;3;;;;;;;"info@applemoon.it";;;"0039 328 5745233 - 393 4446298";"www.applemoon.it";;;;;;;;;;;;;;;;;;;;;;;;;;;;;;;;;;
121677;"Guest House o Affittacamere";"APR Guest House";"Via di Santa Costanza";"2";"41.9229504";"12.5131865";;2;11;5;;;;;;"0039 338 5353177";"info@aprguesthouse.com";;;"0039 06 45598713";"www.aprguesthouse.com";;;;;;;;;;;;;;;;;;;;;;;;;;;;;;;;;;
155553;"Guest House o Affittacamere";"Aquarius Inn";"Via Castelfidardo";"34";"41.9070992";"12.5002807";;3;6;;;3;;;;"0039 338 8803660";"info@aquarius-inn.com";;;;"www.aquarius-inn.com";;;;;;;;;;;;;;;;;;;;;;;;;;;;;;;;;;
117089;"Guest House o Affittacamere";"Ara Pacis Holidays Inn";"Via Muzio Clementi";"9";"41.9055093";"12.4721943";;3;9;;1;1;2;;;"0039 345 3127693";"info@arapacisinn.com";;;;"www.arapacisinn.com";;;;;;;;;;;;;;true;;true;true;;;;;;;;;;;;;;;;;
138879;"Guest House o Affittacamere";"Ara Romae";"Via Generale Roberto Bencivenga";"12";"41.9326882";"12.5290460";;3;7;3;;;;;;"0039 329 0804528 - 380 1098323";"araromae@gmail.com - casavacanze@araromae.it";;;;"www.araromae.it";;;;;;;;;;;;;;;;;;;;;;;;;;;;;;;;;;
183605;"Guest House o Affittacamere";"Ara Suite Guest House o Affittacamere";"Lungotevere dei Mellini";"10";"41.9057117";"12.4735696";;3;12;6;;6;;;;"0039 335 7611542";"arasuiterome@gmail.com";;;"0039 06 3235594";"www.arasuite.it";;;;;;;;;;;;;;true;;true;true;;;;;;;;;;;;;;;;;
191665;"Guest House o Affittacamere";"Aracoeli Suites guest house o affittacamere";"Via D'Aracoeli";"13";"41.8948355";"12.4802514";;3;6;3;;;;;;;;;;;;;;;;;;;;;;;;;;;;;;;;;;;;;;;;;;;;;
76427;"Guest House o Affittacamere";Arancino;"Via Monteforte Irpino";"12";"41.8913085";"12.5513974";;3;6;3;;;;;;"0039 366 545 5940";;;;;;;;;;;;;;;;;;;;;;;;;;;;;;;;;;;;;;;
118212;"Guest House o Affittacamere";"Arches Guest House o Affittacamere";"Via Giovanni Bettolo";"6";"41.9115322";"12.4558761";;2;6;2;;;;;;;"info@archesbb.com";;;"0039 06 98856156";"www.archesbb.com";;;;;;;;;;;;;;;;true;;;;;;;true;;;;;;;;;;;
172372;"Guest House o Affittacamere";"Archi di Roma";"Via Enrico Cialdini";"13";"41.8985129";"12.5031159";;;13;5;;;;;;;;;;;;;;;;;;;;;;;;;;;;;;;;;;;;;;;;;;;;;
304344;"Guest House o Affittacamere";"Archi Rossi - Roma Termini";"Via Filippo Turati";"140";"41.8974137";"12.5040093";;;4;2;;;;;;;;;;;;;;;;;;;;;;;;;;;;;;;;;;;;;;;;;;;;;
75568;"Guest House o Affittacamere";"Arco della Ciambella";"Via dell'Arco della Ciambella";"19";"41.8968465";"12.4769540";;3;9;4;;;;;;;;;;;;;;;;;;;;;;;;;;;;;;;;;;;;;;;;;;;;;
170659;"Guest House o Affittacamere";"Arco di Gallieno Guest house o affittacamere";"Via Pellegrino Rossi";"14";"41.8951373";"12.501609";;2;9;4;;;;;;"0039 347 953 1949";"androsca@gmail.com";;;"0039 06 94 840372";"www.arcodigallieno.com";;;;;;;;;;;;;;true;;true;;;;;;;;;;;;;;;;;;
53052;"Guest House o Affittacamere";"Arco Romano rooms";"Via Germano Sommeiller";"12";"41.8899780";"12.5137016";;2;6;3;;;;;;"0039 328 1698796";"arcoromanorooms@gmail.com";;;"0039 06 7023578";"www.arcoromanorooms.com";"0039 06 92599648";;;;;;;;;;;;;true;;true;;;;;;;;;;;;;;;;;;
53053;"Guest House o Affittacamere";"Arena House";"Via Marco Aurelio";"37";"41.8880959";"12.4958763";;2;12;6;;;;;;;"info@bbarenacolosseo.com";;;"0039 06 97615384";"www.bbarenacolosseo.com";"0039 06 97615384";;;;;;;;;;;;;true;;true;true;;;;;;;;;;;;;;;;;
2454;"Guest House o Affittacamere";"Ares Rooms";"Via Domenichino";"7";"41.8953652";"12.4990148";;2;;11;;;;;;"0039 334 959 2057";;;;;;;;;;true;;;;;;;;;;;;;;;;;;;;;;;;;;;;;
15842;"Guest House o Affittacamere";"Argentina Residenza";"Via di Torre Argentina";"47";"41.8952847";"12.4764217";;1;12;6;;;;;;;"info@argentinaresidenza.com";;;"0039 06 68193267";"www.argentinaresidenza.com";"0039 06 68135794";;;;;;;;;;;;true;;;true;true;;;;;;;;;;;;;;;;;
124905;"Guest House o Affittacamere";"Argileto Rosso";"Via della Madonna dei Monti";"108";"41.8938712";"12.4880596";;;8;;;4;;;;;"residenze@argileto.it";;;"0039 06 88805491";"www.argileto.it";"0039 06 88805492";;;;;;;;;;;;;;;true;true;;;;;;;;;;;;;;;;;
122720;"Guest House o Affittacamere";"Aria Rome Rooms";"Via Domenico Fontana";"12";"41.8877419";"12.5066754";;2;8;3;;;;;;"0039 389 7855266";"info@ariaromerooms.it";;;"0039 06 77203480";"www.ariaromerooms.it";;;;;;;;;;;;;;;;;;;;;;;;;;;;;;;;;;
76429;"Guest House o Affittacamere";Ariosto;"Via Ariosto";"24";"41.8900173";"12.5043597";;3;9;4;;;;;;;"info@ariosto-bb.com";;;"0039 06 77076993";"www.ariosto-bb.com";"0039 06 77076993";;;;;;;;;;;;;;;;;;;;;;;;;;;;;;;;;
301287;"Guest House o Affittacamere";"Armonia all'Opera guest house o affittacamere";"Via del Viminale";"38";"41.900262";"12.495959";;2;11;5;;;;;;;;;;;;;;;;;;;;;;;;;;;;;;;;;;;;;;;;;;;;;
168876;"Guest House o Affittacamere";"Armonia di Smani Badia Guest House o Affittacamere";"Via Cairoli";"101";"41.8942703";"12.5078847";;;11;6;;;;;;;;;;;;;;;;;;;;;;;;;;;;;;;;;;;;;;;;;;;;;
165657;"Guest House o Affittacamere";"Armonie Romane SRL";"Via di Porta Fabbrica";"33";"41.8990865";"12.4534164";;3;;;2;3;;;;"0039 349 6817530 (IT) - 0039 393 8837064 (UK)";"armonieromane@gmail.com";;;;"http://armonieromane.net/wp/";;;;;;;;true;;;;;;;;;true;;;;true;;;;;;;;;;;;;
155886;"Guest House o Affittacamere";"Arpinelli Relais";"Via della Panetteria";"1";"41.9025241";"12.4852173";;2;10;;;5;;;;"0039 380 7052192";"arpinellirelais@gmail.com";;;;"http://www.arpinelli.com/";;;;;;;;;;;;;;;;;;;;;;;;;;;;;;;;;;
164470;"Guest House o Affittacamere";Arre;"Via di Torre Argentina";"47";"41.89542";"12.47638";;1;12;;;6;;;;;;;;;;;;;;;;;;;;;;;;;;;;;;;;;;;;;;;;;;;
76463;"Guest House o Affittacamere";"Art and Relax Suites ";"Via Giovanni Giolitti";"137";"41.8991172";"12.5025562";;2;8;4;;;;;;"0039 339 6166937";"info@artandrelaxsuites.com";;;;"www.artandrelaxsuites.com";;;;;;;;;;;;;;;;;;;;;;;;;;;;;;;;;;
260966;"Guest House o Affittacamere";"Art. Atelier Accomodation Borgo Guest House o Affittacamere";"Via dei Tre Pupazzi";"4";"41.904516";"12.462072";;2;11;4;;;;;;;;;;;;;;;;;;;;;;;;;;;;;;;;;;;;;;;;;;;;;
310658;"Guest House o Affittacamere";"Art Atelier Risorgimento";"Piazza Del Risorgimento";"55";"41.905609";"12.458386";;2;6;2;;1;;;;"0039 338 443168";"mlbellini@hotmail.com";;;;;;;;;;;;;;;;;;;;;;;;;;;;;;;;;;;;;;
170653;"Guest House o Affittacamere";"Art Atelier Rome";"Via Crescenzio";"82";"41.906014";"12.460706";;2;9;4;;;;;;;;;;;;;;;;;;;;;;;;;;;;;;;;;;;;;;;;;;;;;
310660;"Guest House o Affittacamere";"Art Lodge";"Via Premuda";"18";"41.914008";"12.453561";;3;8;4;;4;;;;;"artsrls@graziani.cloud";;;"0039 06 39742953";;;;;;;;;;;;;;;;;;;;;;;;;;;;;;;;;;;
2487;"Guest House o Affittacamere";"Art Mary";"Via Milazzo";"3";"41.9015937";"12.5038268";;2;12;6;;;;;;;;;;"0039 06 4452987";;"0039 06 44361296";;;;;;;;;;;;;true;;true;;;;;;;true;;;;;;;;;;;
131388;"Guest House o Affittacamere";"Art Seven Roma";"Piazza Cavour";"3";"41.90601";"12.47036";;2;16;6;;;;;;;"info@artsevenroma.it";"www.facebook.com/pages/ArtSeven-Roma/475204549290363";;"0039 06 6832676";"www.artsevenroma.it";;;;;;;;;;;;;;true;;true;true;;true;;;;;;;;;;;;;;;
190025;"Guest House o Affittacamere";"Art Suite Torre Argentina - Guest house o affittacamere";"Via di Torre Argentina";"44";"41.8953611";"12.4761982";;2;10;4;;;;;;;;;;;;;;;;;;;;;;;;;;;;;;;;;;;;;;;;;;;;;
155579;"Guest House o Affittacamere";"Art Suites";"Vicolo del Babuccio";"37";"41.90026";"12.4846";;2;;3;;;;;;;;;;;;;;;;;;;;;;;;;;;;;;;;;;;;;;;;;;;;;
325609;"Guest House o Affittacamere";"Arta di Marte Suites Guest House o Affittacamere";"Via di Campo Marzio";"46";"41";"902949";;2;14;6;;;;;;;"info@aradimarte.com";;;"0668807445";"www.aradimarte.com";;;;;;;;;;;;;;;;;;;;;;;;;;;;;;;;;;
155748;"Guest House o Affittacamere";Artemis;"Via Nazionale";"243";"41.9014561";"12.4941231";;3;7;;3;2;;;;"0039 389 9787112";"info@artemisbb.com";;;;"www.artemisbb.com";"0039 06 45494035";;;;;;;;;;;;;;;true;true;;;;;;;;;;;;;;;;;
76464;"Guest House o Affittacamere";"Artemisia Guest House";"Via dei Lucchesi";"29";"41.8995970";"12.4840370";;3;8;5;;;;;;;;;;;;;;;;;;;;;;;;;;;;;;;;;;;;;;;;;;;;;
131947;"Guest House o Affittacamere";Arthouse;"Via Carlo Alberto";"8";"41.8964259";"12.5028585";;3;5;;;1;1;;;"0039 331 6041850 | 333 5911431";"info@bbarthouse.it";;;"0039 06 44702393";"www.bbarthouse.it";;;;;;;;;;;;;;;;;;;;;;;;;;;;;;;;;;
124505;"Guest House o Affittacamere";"Arthur Hostel";"Via Giovanni Giolitti";"213";"41.8977111";"12.5049437";;3;7;;;2;1;;;;;;;"06 6487 1067";;;;;;;;;;;;;;;;;;;;;;;;;;;;;;;;;;;
329997;"Guest House o Affittacamere";"Arts & Rooms Rdt";"Via Germanico";"54";"41.90778476620087";"12.4573393476558";;2;5;3;1;2;;;;"393 8693887";"RENTINRHOME@GMAIL.COM";;;;;;;;;;;;;;;;;;;;;;;;;;;;;;;;;;;;;;
168911;"Guest House o Affittacamere";"As Relais";"Piazza Benedetto Cairoli";"9A";"41.8941134";"12.4746999";;;14;6;;;;;;;;;;;;;;;;;;;;;;;;;;;;;;;;;;;;;;;;;;;;;
125757;"Guest House o Affittacamere";"Assunta Domus";"Via della Scrofa";"39";"41.9014536";"12.474961";;2;15;5;;;;;;"0039 329 3667035";"info@assuntadomus.com";;;;"www.assuntadomus.com";"0039 06 64761028";;;;;;;;;;;;;true;;true;true;;;;;;;;;;;;;;;;;
53057;"Guest House o Affittacamere";Astro;"Via Napoleone III";"58";"41.8965574";"12.5024954";;2;12;6;;;;;;;;;;"0039 06 45426480";;;;;;;;;;;;;;;;;;;;;;;;;;;;;;;;;;;
327074;"Guest House o Affittacamere";"At 41";"Via Torino";"41";"41.903137296930836";"12.494244848751649";;2;12;5;;4;;;;;"amministrazione@pragmanet.net";;;"06 5923321";;;;;;;;;;;;;;;;;;;;;;;;;;;;;;;;;;;
116875;"Guest House o Affittacamere";"At Forty-One";"Via Torino";"41";"41.9031636";"12.4944";;2;12;5;;;;;;;"amministrazione@pragmanet.net";;;"06 5923321";;;;;;;;;;;;;;;;;;;;;;;;;;;;;;;;;;;
76626;"Guest House o Affittacamere";"At Home Townhouse Filiberto";"Via Emanuele Filiberto";"109";"41.8917310";"12.5058925";;2;14;6;;;;;;"0039 328 6942691 - 349 5907149";"info@athometownhouse.com";;;"0039 06 32120102";"www.athometownhouse.com";"0039 06 32655665";;;;;;;;;;;;;;;;;;;;;;;;;;;;;;;;;
307315;"Guest House o Affittacamere";"Atelier Musicale Suites";"Via Frattina";"104";"41.904145";"12.480532";;2;8;3;;1;2;;;"0039 389 0008467";"demforthefuture@gmail.com";;;;;;;;;;;;;;;;;;;;;;;;;;;;;;;;;;;;;;
53059;"Guest House o Affittacamere";Atesia;"Via Ferruccio";"44";"41.8927647";"12.5039980";;2;7;5;;;;;;;;;;"0039 06 77076189";;"0039 06 79326553";;;;;;;;;;;;;;;;;;;;;;;;;;;;;;;;;
155739;"Guest House o Affittacamere";"Athena Guest House";"Via Sabotino";"2";"41.9170156";"12.4588979";;2;7;;;2;1;;;"0039 366 9567959";"athenaguesthouse@gmail.com";"www.facebook.com/athenaguesthouse/";;"0039 06 3735 3737";"www.athenaguesthouse.it";;;;;;;;;;;;;;;;;;;;;;;;;;;;;;;;;;
119575;"Guest House o Affittacamere";"Atlantis Inn Roma";"Via Muzio Clementi";"9";"41.9055093";"12.4721943";;3;12;5;;;;;;;"info@atlantisroma.it";;;;"http://atlantisroma.it/";;;;;;;;;;;;;;;;;;;;;;;;;;;;;;;;;;
53060;"Guest House o Affittacamere";"Attico dei pini";"Via Novacella";"18";"41.8493535";"12.4762707";;3;18;6;;;;;;;"atticodeipini@libero.it";;;"0039 06 27801423 - 06 59603982";"www.bebatticodeipiniroma.com";"0039 06 27858063";;;;;;;;;;;;;;;;;;;;;;;;;;;;;;;;;
134806;"Guest House o Affittacamere";"Attico Romantica";"Via Capitan Bavastro";"136";"41.8690421";"12.4937209";;2;6;;;3;;;;"0039 329 9185971";"atticoromantica@gmail.com";;;;"http://atticoromantica.com/";;;;;;;;;;;;;;;;;;;;;;;;;;;;;;;;;;
76631;"Guest House o Affittacamere";"Attilio Regolo";"Via Attilio Regolo";"12/D";"41.9085488";"12.4648752";;3;10;5;;;;;;"0039 329 1189912";"info@attilioregolo.it";;;"0039 06 3235817";"www.attilioregolo.it";;;;;;;;;;;;;;;;;;;;;;;;;;;;;;;;;;
155554;"Guest House o Affittacamere";"Audrey Rooms";"Via Giorgio Scalia";"19";"41.9070575";"12.4456679";;2;7;;;2;1;;;"0039 333 581 0724";;"https://www.facebook.com/audreyrooms/";;;"www.audreyrooms.it";;;;;;;;;;;;;;;;true;true;;;;;;;;;;;;;;;;;
278668;"Guest House o Affittacamere";"Audrey's Roman Holidays - Rome Suite & Rooms";"Via Cavour";"44";"41.899814";"12.498707";;2;8;3;;;;;;;;;;;;;;;;;;;;;;;;;;;;;;;;;;;;;;;;;;;;;
117122;"Guest House o Affittacamere";"Augustana House";"Lungotevere Marzio";"3";"41.904134";"12.4747784";;2;12;;;6;;;;;"info@augustanahouse.com";;;"0039 06 68805748";"www.augustanahouse.com";;;;;;;;;;;;;;;;;;;;;;;;;;;;;;;;;;
2430;"Guest House o Affittacamere";Augustus;"Via Piave";"61";"41.9102161";"12.4982475";;2;12;6;;;;;;;"info@augustusrome.com";;;"0039 06 42014911";"www.augustusrome.com";"0039 06 42390258";;;;true;;;;;;;;true;true;;true;;;;;;;true;;;;;;;;;;;
76632;"Guest House o Affittacamere";"Aurelia 429 Fine Town House";"Via Aurelia";"429";"41.8979957";"12.4304748";;3;7;4;;;;;;"0039 366 4909053";"info@aurelia429.it";;;"0039 06 88922527";"www.aurelia429.it";"0039 06 88922527";;;;;;;;;;;;;;;;;;;;;;;;;;;;;;;;;
117377;"Guest House o Affittacamere";"Aurelia Garden Rooms";"Via Paolo III";"10";"41.9113826";"12.4210632";;3;5;3;;;;;;"0039 338 2876066 (Serena) - 333 9190559 (Andrea)";"contatti@aureliagardenrooms.it";;;;"www.aureliagardenrooms.it/?lang=it";;;;;;;;;;;;;;true;;true;true;;;;;;;;;;;;;;;;;
184152;"Guest House o Affittacamere";"Aurelia Home";"Via Aurelia";"429";"41.8979484";"12.4303958";;2;10;6;;;;;;;"info@aureliahomerome.com";;;"366 490 9053";;;;;;;;;;;;;;;;;;;;;;;;;;;;;;;;;;;
76097;"Guest House o Affittacamere";"Aurelia Palace";"Via Giovanni Pacchioni";"31";"41.8816130";"12.3837898";;2;6;3;;;;;;;"info@aureliahouseandloft.com";;;"0039 06 68802304";"www.aureliahouseandloft.com";;;;;;;;;;;;;;;;;;;;;;;;;;;;;;;;;;
53061;"Guest House o Affittacamere";"Aurelia Vatican apartments";"Via dei Laterizi";"20";"41.9091455";"12.4347075";;3;21;6;;;;;;"334 - 1531863";;;;"0039 - 06 39761382";"www.aureliavaticanapartments.com";;;;;;;;;;;;;;;;;;;;;;;;;;;;;;;;;;
117417;"Guest House o Affittacamere";"Aurelio Suites Garden";"Via del Teatro Pace";"28";"41.8983535";"12.4716173";;3;6;2;;;;;;;;;;;;;;;;;;;;;;;;;;;;;;;;;;;;;;;;;;;;;
168916;"Guest House o Affittacamere";"Aurelio terraces guest house o affittacamere";"Via Baldo degli Ubaldi";"143";"41.89929";"12.43491";;;5;2;;;;;;;;;;;;;;;;;;;;;;;;;;;;;;;;;;;;;;;;;;;;;
76633;"Guest House o Affittacamere";"Aurora Boreale";"Via di Portonaccio";"21/A";"41.9056416";"12.5354434";;3;11;6;;;;;;"0039 327 0158176 - 340 3596798";"auroraboreale.21a@gmail.com";;;;"www.bebtiburtina.roma.it";;"0039 06 43253724";;;;;;;;;;;;;;;;;;;;;;;;;;;;;;;;
182829;"Guest House o Affittacamere";"Ava Guest house o affittacamere";"Via Carlo Cattaneo";"15";"41.8974378";"12.5014378";;3;7;3;;;;;;;;;;;;;;;;;;;;;;;;;;;;;;;;;;;;;;;;;;;;;
187445;"Guest House o Affittacamere";"Ava II Guest house o affittacamere";"Via Carlo Cattaneo";"15";"41.897113";"12.5011192";;;5;2;;;;;;;;;;;;;;;;;;;;;;;;;;;;;;;;;;;;;;;;;;;;;
76687;"Guest House o Affittacamere";"Ave di Muhammad Sajid";"Via Lorenzo Il Magnifico";"61";"41.9120457";"12.5253766";;3;11;5;;;;;;;;;;;;;;;;;;;;;;;;;;;;;;;;;;;;;;;;;;;;;
87638;"Guest House o Affittacamere";"Ave Popolo";"Piazza Vittorio Emanuele II";"35";"41.8952500";"12.5047190";;3;7;4;;;;;;"0039 389 9692716 - 348 1656440";"bbavepopolo@hotmail.com";;;;"http://bbavepopolo.xoom.it/";;;;;true;;;;;;;;true;true;;true;true;;;;true;;;;;;;;;;;;;
184153;"Guest House o Affittacamere";"Avena Guest house o affittacamere";"Via di Santa Prassede";"8";"41.8966319";"12.498688";;1;9;6;;;;;;;;;;;;;;;;;;;;;;;;;;;;;;;;;;;;;;;;;;;;;
53064;"Guest House o Affittacamere";"Aventino guest house";"Viale Aventino";"98";"41.8815060";"12.4851528";;3;6;3;;;;;;"0039 331 4675450";"info@aventinoguesthouse.com";;;;"www.avenetinoguesthouse.com";;;;;;;;;;;;;;;;;;;;;;;;;;;;;;;;;;
127529;"Guest House o Affittacamere";"Aventino Inn";"Viale Aventino";"90";"41.8813995";"12.4849705";;3;11;;1;5;;;;;;;;;;;;;;;;;;;;;;;;;;;;;;;;;;;;;;;;;;;
180665;"Guest House o Affittacamere";"Avignonesi Rooms Rome";"Via degli Avignonesi";"5";"41.90319";"12.48811";;3;10;5;;;;;;"0039 327 9045317";;;;;;;;;;;;;;;;;;;;;;;;;;;;;;;;;;;;;;;
182830;"Guest House o Affittacamere";"Avignonesi Suites - Guest house o affittacamere";"Via degli Avignonesi";"5";"41.90319";"12.48811";;3;15;5;;;;;;;"avignonesisuites@gmail.com";;;;;;;;;;;;;;;;;;;;;;;;;;;;;;;;;;;;;;
158482;"Guest House o Affittacamere";"AZ Suites";"Via del Corso";"4";"41.9095139";"12.4768774";;2;12;;;6;;;;;;;;;;;;;;;;;;;;;;;;;;;;;;;;;;;;;;;;;;;
155843;"Guest House o Affittacamere";"Azzurra Guest House";"Via Genova";"30";"41.89905";"12.49241";;3;;;;3;2;;;;;;;"0039 06 485420";;;;;;;;;;;;;;;;;;;;;;;;;;;;;;;;;;;
301545;"Guest House o Affittacamere";"Azzurra Rooms";"Via Genova";"30";"41.899122";"12.492593";;;10;4;;;;;;;;;;"06 485420";;;;;;;;;;;;;;;;;;;;;;;;;;;;;;;;;;;
116942;"Guest House o Affittacamere";"Azzurro San Pietro";"Via Vittorio Arminjon";"5";"41.9116049";"12.4554832";;3;4;1;;;;;;"0039 347 6201845";"azzurrosanpietro@gmail.com";;;;"www.azzurrosanpietro.it";;;;;;;;;;;;;;;;;;;;;;;;;;;;;;;;;;
168932;"Guest House o Affittacamere";"B&B Bel cortese di Christian Mistretta";"Via Vinicio Cortese";"176";"41.7987722";"12.4472456";;;21;6;;;;;;;;;;;;;;;;;;;;;;;;;;;;;;;;;;;;;;;;;;;;;
140210;"Guest House o Affittacamere";"B & B Bel Soggiorno";"Via Dalmazia";"16";"41.9156239";"12.5056182";;2;21;6;;;;;;;;;;;;;;;;;;;;;;;;;;;;;;;;;;;;;;;;;;;;;
168933;"Guest House o Affittacamere";"B&B Cortese di Yuri Razzino";"Via Vinicio Cortese";"176";"41.7987722";"12.4472456";;;21;6;;;;;;;;;;;;;;;;;;;;;;;;;;;;;;;;;;;;;;;;;;;;;
177492;"Guest House o Affittacamere";"B&B Musei Vaticani";"Via Sebastiano Veniero";"78";"41.9074469";"12.4521097";;3;6;3;;;;;;;;;;;;;;;;;;;;;;;;;;;;;;;;;;;;;;;;;;;;;
155971;"Guest House o Affittacamere";"B&B Roma Affittacamere";"Via Anastasio II";"139";"41.89721";"12.44098";;2;;;;2;1;;;;;;;;;;;;;;;;;;;;;;;;;;;;;;;;;;;;;;;;;;
168934;"Guest House o Affittacamere";"B&B Rome Parco Appia Antica";"Via Vallericcia";;"41.8470446";"12.5483634";;;9;4;;;;;;;;;;;;;;;;;;;;;;;;;;;;;;;;;;;;;;;;;;;;;
165292;"Guest House o Affittacamere";"B&Brothers House";"Via Nomentana";"303";"41.9175228";"12.5128647";;2;;;;4;1;;;"0039 338 160 1094";;;;;;;;;;;;;;;;;;;;;;;;;;;;;;;;;;;;;;;
76689;"Guest House o Affittacamere";"B&T Rooms";"Via dei Mille";"9";"41.9036897";"12.5033833";;3;7;3;;;;;;"0039 339 2077154";"info@btrooms.com";;;"0039 06 490111";"www.btrooms.it";;;;;;;;;;;;;;;;;;;;;;;;;;;;;;;;;;
132885;"Guest House o Affittacamere";"Babbo guest house o affittacamere";"Via Castelfidardo";"34";"41.9071152";"12.5002712";;;7;4;;;;;;"0039 333 4889305";"bbromababbo@gmail.com";;;"0039 06 96048822";"www.bbromababbo.it";;;;;;;;;;;;;;;;;true;;;;;;;;;;;;;;;;;
75010;"Guest House o Affittacamere";Babnjam;"Via Bixio";"41";"41.8939814";"12.5089770";;3;14;5;;;;;;;;;;;;;;;;;;;;;;;;;;;;;;;;;;;;;;;;;;;;;
313830;"Guest House o Affittacamere";"Baboon Room";"Via del Babuino";"151";"41.908118";"12.479149";;3;9;4;;3;1;;;;"info@baboonroom.com";;;"0039 06 3218486";;;;;;;;;;;;;;;;;;;;;;;;;;;;;;;;;;;
76692;"Guest House o Affittacamere";"Babuino 181 Relais";"Via del Babuino";"181";"41.9093098";"12.4779606";;2;13;4;;;;;;"0039 06 3229 5295";;;;;;;;;;;;;;;;;;;;;;;;;;;;;;;;;;;;;;;
182831;"Guest House o Affittacamere";"Babuino Comfort Rooms";"Via del Babuino";"56";"41.90794";"12.47954";;3;5;2;;;;;;;;;;;;;;;;;;;;;;;;;;;;;;;;;;;;;;;;;;;;;
314755;"Guest House o Affittacamere";"Babuino Palace & Suites";"Via del Babuino";"29";"41.909345";"12.478232";;3;14;6;;;;;;;;;;;;;;;;;;;;;;;;;;;;;;;;;;;;;;;;;;;;;
172343;"Guest House o Affittacamere";"Babuino Restart";"Via del Babuino";"51";"41.9085114";"12.4790055";;3;7;3;;;;;;;;;;;;;;;;;;;;;;;;;;;;;;;;;;;;;;;;;;;;;
164609;"Guest House o Affittacamere";"Baci da Roma";"Via di Porta Maggiore";"23";"41.8930888";"12.5106399";;3;10;;;5;;;;"0039 340 5621520";"info@bacidaroma.it";;;;"www.bacidaroma.it";;;;;;;;;;;;;;;;;;;;;;;;;;;;;;;;;;
182832;"Guest House o Affittacamere";"Backpackers Piramide";"Via Giovanni da Empoli";"3";"41.8733679";"12.4799569";;2;12;6;;;;;;;;;;;;;;;;;;;;;;;;;;;;;;;;;;;;;;;;;;;;;
122774;"Guest House o Affittacamere";"Baghirova in Rome";"Via del Teatro Valle";"53B";"41.8972862";"12.4751308";;3;11;5;;;;;;"0039 346 5211177";;;;;;;;;;;;;;;;;;;;;;;;;;;;;;;;;;;;;;;
132597;"Guest House o Affittacamere";"Balestrari 5";"Via dei Balestrari";"5";"41.8943666";"12.4718106";;3;1;;1;;;;;;;;;"0039 06 6476 0927";;;;;;;;;;;;;;;;;;;;;;;;;;;;;;;;;;;
121979;"Guest House o Affittacamere";"Banchi Vecchi Stay";"Via dei Banchi Vecchi";"117";"41.8985305";"12.4667884";;3;6;2;;;;;;;;;;;"www.banchivecchistay.com";;;;;;;;;;;;;;;;;;;;;;;;;;;;;;;;;;
2437;"Guest House o Affittacamere";"Barocco Apartments";"Via della Purificazione";"8";"41.904035";"12.488026";;1;8;;;4;;;;;;;;"0039 06 4872001";;"0039 06 485994";;;;;;;true;;;;;true;true;;true;;;;;;;;;;;;;;;;;;
139980;"Guest House o Affittacamere";"Barocco Guest House";"Via della Purificazione";"8";"41.9040504";"12.4879606";;3;4;;;2;;;;;;;;;;;;;;;;;;;;;;;;;;;;;;;;;;;;;;;;;;;
15844;"Guest House o Affittacamere";"Basilica Square";"Piazza di San Giovanni in Laterano";"26";"41.8898942";"12.4948873";;3;11;6;;;;;;;"info@basilicasquare.com";;;"0039 06 77590548";;"0039 06 77077212";;;;;;;true;;;;;;true;;true;;;;;;;;;;;;;;;;;;
164472;"Guest House o Affittacamere";"Basilio Veneto Rome";"Via di San Basilio";"55";"41.904872";"12.4897034";;2;;;1;5;;;;;;;;;;;;;;;;;;;;;;;;;;;;;;;;;;;;;;;;;;;
168928;"Guest House o Affittacamere";"Battisti 133";"Via Cesare Battisti";"133";"41.8969832";"12.4825213";;;4;2;;;;;;;;;;;;;;;;;;;;;;;;;;;;;;;;;;;;;;;;;;;;;
117173;"Guest House o Affittacamere";"Baylon suites";"Via Luciano Manara";"4";"41.8878768";"12.4711111";;3;11;6;;;;;;"0039 339 1348074";"baylonsuites@gmail.com";;;;"www.baylonsuites.com";;;;;;;;;;;;;;;;;;;;;;;;;;;;;;;;;;
165033;"Guest House o Affittacamere";"BDB Luxury Rooms Margutta";"Via Margutta";"39";"41.90868";"12.47944";;2;;;3;2;;;;;;;;;"www.bdbluxuryrooms.com/";;;;;;;;;;;;;;;;;;;;;;;;;;;;;;;;;;
121342;"Guest House o Affittacamere";"BdB Luxury Rooms Navona Celio";"Via della Vetrina";"5";"41.9001713";"12.4698183";;2;2;;2;;;;;;;;;;;;;;;;;;;;;;;;;;;;;;;;;;;;;;;;;;;;
76702;"Guest House o Affittacamere";"BDB Luxury Rooms San Pietro";"Circonvallazione Clodia";"169";"41.9215370";"12.4576602";;3;6;4;;;;;;"0039 337 1092917";"info@bdbluxuryrooms.com";;;"0039 06 68210020";"www.bdbluxuryrooms.com/struttura_san_pietro.php";"0039 06 68210020";;;;;;;;;;;;;;;;;;;;;;;;;;;;;;;;;
76704;"Guest House o Affittacamere";"BDB Luxury Rooms Spagna ";"Via Francesco Crispi";"79";"41.9051495";"12.4858640";;3;5;3;;;;;;"0039 337 1092917";"info@bdbluxuryrooms.com";;;"0039 06 68210020";"www.bdbluxuryrooms.com/struttura_piazza_di_spagna.php";"0039 06 68210020";;;;;;;;;;;;;;;;;;;;;;;;;;;;;;;;;
135073;"Guest House o Affittacamere";"Bdb Luxury rooms trastevere torre";"Via Benedetta";"16";"41.8918366";"12.4688336";;2;11;;1;5;;;;;;;;;"www.bdbluxuryrooms.com/guesthouse_trastevere/ita/hotel-vicino-campo-fiori.html";;;;;;;;;;;;;;;;;;;;;;;;;;;;;;;;;;
168931;"Guest House o Affittacamere";"Be first guest house o affittacamere";"Via Principe Amedeo";"165";"41.8967563";"12.5036075";;3;6;3;;;;;;;;;;;;;;;;;;;;;;;;;;;;;;;;;;;;;;;;;;;;;
81233;"Guest House o Affittacamere";"Be my Guest";"Via Appia Nuova";"59";"41.8842699";"12.5113281";;3;6;4;;;;;;"0039 347 4346902";"bemyguest.roma@gmail.com";;;;"http://bemyguestroma.weebly.com/";;;;;;;;;;;;;;;;;;;;;;;;;;;;;;;;;;
75544;"Guest House o Affittacamere";"Bear 87";"Via dell'Orso";"88";"41.9018534";"12.4725642";;3;12;6;;;;;;;;;;;;;;;;;;;;;;;;;;;;;;;;;;;;;;;;;;;;;
326541;"Guest House o Affittacamere";"Beas's";"Via Giovanni Severano";"33";"41.914638239767825";"12.519264939591137";;2;11;5;;4;1;;;"375 5876461";"infoleonardosrls@gmail.com";;;;;;;;;;;;;;;;;;;;;;;;;;;;;;;;;;;;;;
53067;"Guest House o Affittacamere";"Beau-site";"Via Ludovisi";"45";"41.9068412";"12.4879100";;1;12;6;;;;;;;"info@beausiterome.com";;;"0039 06 42012660";;"0039 06 42814165";;;;;;;;;;;;;;;;;;;;;;;;;;;;;;;;;
292647;"Guest House o Affittacamere";"Beautiful Home";"Via Goito";"17";"41.906103";"12.500224";;3;8;4;;;;;;;"homebeautiful17@gmail.com";;;;;;;;;;;;;;;;;;true;;true;true;;;;;;;;;;;;;;;;;
155685;"Guest House o Affittacamere";"Beautiful Place in Rome SRL";"Via Vicenza";"32";"41.90359";"12.50358";;1;6;;;3;;;;"0039 338 641 2262";;;;;;;;;;;;;;;;;;;;;;;;;;;;;;;;;;;;;;;
76711;"Guest House o Affittacamere";"Bed a San Pietro";"Via Gregorio VII";"466";"41.8941258";"12.4327003";;3;12;4;;;;;;"0039 392 8675790";"info@bbsanpietro.com";;;;"www.bbsanpietro.com";"0031 848680996";;;;;;;;;;;;;;;;true;;;;;;;;;;;;;;;;;
75992;"Guest House o Affittacamere";"Bed and Best";"Via Cola di Rienzo";"190";"41.9074735";"12.4632333";;2;9;5;;;;;;"0039 366 8930414 - 347 4932695 - 348 3418047";"bedandbest@gmail.com";;;"0039 06 68808218";;"0039 06 68808212";;;;;;;;;;;;;;;;;;;;;;;;;;;;;;;;;
168935;"Guest House o Affittacamere";"Bed and Breakfast Aurelia Park";"Via dei Gozzadini";"60";"41.8946437";"12.4371944";;;21;6;;;;;;;;;;;;;;;;;;;;;;;;;;;;;;;;;;;;;;;;;;;;;
170689;"Guest House o Affittacamere";"Bed and Taste Guest house o affittacamere";"Largo dei Fiorentini";"1";"41.899083";"12.464872";;1;11;6;;;;;;"0039 347 9159218";"info@bedandtaste.com";;;"0039 06 87763326";"www.bedandtaste.com";;;;;;;;;;;;;;;;;;;;;;;;;;;;;;;;;;
191687;"Guest House o Affittacamere";"Bed & Bike Villa Statilia";"Via Giuseppe Luigi Passalacqua";"26";"41.8912023";"12.5128937";;2;5;3;;;;;;;;;;;;;;;;;;;;;;;;;;;;;;;;;;;;;;;;;;;;;
298613;"Guest House o Affittacamere";"Bed in Bormida Guest House o affittacamere";"Via Bormida";"1";"41.916169";"12.503792";;3;4;2;;;;;;;;;;;;;;;;;;;;;;;;;;;;;;;;;;;;;;;;;;;;;
124501;"Guest House o Affittacamere";"Bedrooms in Rome di Francesco Chiofalo";"Via Giovanni Stefano Roccatagliata";"4";"41.8749345";"12.4515915";;3;7;;1;3;;;;;;;;;;;;;;;;;;;;;;;;;;;;;;;;;;;;;;;;;;;
330510;"Guest House o Affittacamere";"Beige Et Ble'";"Via Degli Uffici Del Vicario";"33";"41.90111144104738";"12.477462103179855";;1;8;4;1;2;1;;;"333 5276953";"info@beigeetbleguesthouse.com";;;;"www.beigeetbleguesthouse.com";;;;;;;;;;;;;;;;;;;;;;;;;;;;;;;;;;
303727;"Guest House o Affittacamere";"Beking Roma Guest house o affittacamere";"Via Giovanni Giolitti";"101";"41.899509";"12.501881";;;4;2;;;;;;;;;;;;;;;;;;;;;;;;;;;;;;;;;;;;;;;;;;;;;
101989;"Guest House o Affittacamere";"Bellaventura B&B";"Piazzale dei Partigiani";"7";"41.8740080";"12.4852148";;3;8;5;;;;;;"0039 329 7896346 -  320 6899186";"booking@bellaventurabeb.it";;;;"www.bellaventurabeb.it";;;;;;;;;;;;;;true;;true;true;;;;;;;;;;;;;;;;;
2466;"Guest House o Affittacamere";Bellesuite;"Via Modena";"5";"41.902360";"12.494454";;2;12;6;;;;;;;"mail@bellesuiterome.com";;;"0039 06 95213049 - 06 4880940 - 06 95213187";"www.bellesuiterome.com";"0039 06 4880940 - 06 95213187";;;;;;;;;;;;true;;;true;;;;;;;true;;;;;;;;;;;
165137;"Guest House o Affittacamere";"Bellezza al Colosseo Guest House";"Via Capo D'Africa";"26";"41.88877";"12.49519";;3;8;;;4;;;;;;;;;;;;;;;;;;;;;;;;;;;;;;;;;;;;;;;;;;;
308760;"Guest House o Affittacamere";"Bellitalia Vacanze";"Via Crescenzio";"2";"41.905456";"12.467336";;1;15;6;;3;3;;;"0039 340 4238580";"bellitaliasnc@libero.it";;;;"www.bellitaliavacanze.it/it/index.html";;;;;;;;;;;;;;;;;;;;;;;;;;;;;;;;;;
116881;"Guest House o Affittacamere";"Bells of Rome";"Via Aosta";"62";"41.8842754";"12.5150855";;3;7;4;;;;;;"0039 338 349 3321";;;;;;;;;;;;;;;;;;;;;;;;;;;;;;;;;;;;;;;
2402;"Guest House o Affittacamere";"Belsiana House";"Via Belsiana";"20";"41.905572";"12.479344";;1;;6;;12;;;;;;;;"0039 06 69202172";;"0039 06 69941197";;;;;;;true;;;;;true;true;;true;;;;;;;;;;;;;;;;;;
325925;"Guest House o Affittacamere";"Belsiana Inn Rome guest house o affittacamere";"Via Belsiana";"35";"41.905155978454886";"12.479751684716285";;1;6;3;;;;;;;;;;;;;;;;;;;;;;;;;;;;;;;;;;;;;;;;;;;;;
330548;"Guest House o Affittacamere";"Belsiana Suites";"Via Belsiana";"100";"41.90653401090838";"12.478956643529651";;2;5;2;;1;1;;;;;;;;;;;;;;;;;;;;;;;;;;;;;;;;;;;;;;;;;;
76715;"Guest House o Affittacamere";"Belvedere Termini";"Via Rattazzi";"65";"41.8982651";"12.5039638";;3;7;3;;;;;;"0039 338 5698115";"belvederetermini@hotmail.com";;;"0039 06 4465834 (fino alle 15.00)";"www.belvederetermini.it/";;;;;;;;;;;;;;;;;;;;;;;;;;;;;;;;;;
76106;"Guest House o Affittacamere";"Bene House";"Via Principe Eugenio";"32";"41.8941504";"12.5070541";;3;8;4;;;;;;;;;;;;;;;;;;;;;;;;;;;;;;;;;;;;;;;;;;;;;
124242;"Guest House o Affittacamere";"Benvenuti a Trastevere";"Viale di Trastevere";"66A";"41.8862604";"12.4715497";;3;10;6;;;;;;;;;;;;;;;;;;;;;;;;;;;;;;;;;;;;;;;;;;;;;
143549;"Guest House o Affittacamere";"Bernardino Nacci";"Viale di Trastevere";"230";"41.8772507";"12.4654479";;2;21;6;;;;;;;;;;;;;;;;;;;;;;;;;;;;;;;;;;;;;;;;;;;;;
317701;"Guest House o Affittacamere";"Bernini Suites";"Vicolo del Fico";"6";"41.89949863150833";"12.470195422579708";;2;12;6;1;4;1;;;"0039 349 5485591";;;;;;;;;;;;;;;;;;;;;;;;;;;;;;;;;;;;;;;
286792;"Guest House o Affittacamere";"Bespoke Luxury Suite & apartments roma guest house o affittacamere";"Via Torino";"29";"41.902221";"12.495030";;3;13;6;;;;;;;;;;"0039 06 48907104";;;;;;;;;;;;;;;;;true;true;;;;;;;;;;;;;;;;;
165031;"Guest House o Affittacamere";"Best holidays in Rome";"Via Principe Amedeo";"148";"41.896741";"12.5039687";;3;;4;;;;;;"0039 328 904 0019";;;;;;;;;;;;;;;;;;;;;;;;;;;;;;;;;;;;;;;
139322;"Guest House o Affittacamere";"Best Pantheon";"Corso Vittorio Emanuele II";"21";"41.8960563";"12.4782488";;2;8;;1;2;1;;;"335 871 4840";"info@bestbb.it";;;;"www.bestbb.it/pantheon.php";;;;;;;;;;;;;true;;;true;true;;;;;;;;;;;;;;;;;
117053;"Guest House o Affittacamere";"Best Rooms";"Via Catone";"21";"41.9074194";"12.4590423";;3;7;4;;;;;;;"info@bestroomsrome.com";;;"0039 06 3908161";"www.bestroomsrome.com";;;;;;;;;;;;;;;;true;;;;;;;;;;;;;;;;;;
138836;"Guest House o Affittacamere";"Best Suites";"Via del Teatro Pace";"25";"41.8982534";"12.4716163";;3;11;;1;2;3;;;;"teatropaceunosrl@gmail.com";;;"0039 06 686 9997";;;;;;;;;;;;;;;;;;;;;;;;;;;;;;;;;;;
138837;"Guest House o Affittacamere";"Best Suites Navona";"Via del Teatro Pace";"25";"41.8982534";"12.4716163";;3;10;;1;3;1;;;;;;;"0039 06 6830 8597";;;;;;;;;;;;;;;;;;;;;;;;;;;;;;;;;;;
117389;"Guest House o Affittacamere";"Best Suites Pantheon";"Piazza della Rotonda";"70";"41.899284";"12.477167";;2;11;6;;;;;;;"info@bestsuitesroma.it";;;"0039 06 45653501";"www.bestsuitesroma.it";;;;;;;;;;;;;true;;;true;true;;;;;;;;;;;;;;;;;
140882;"Guest House o Affittacamere";"Best Vatican";"Via degli Scipioni";"135";"41.9090321";"12.4596873";;2;7;;1;3;;;;"0039 335 8714840";"info@bestbb.it";;;;"www.bestbb.it";;;;;;;;;;;;;;;;;;;;;;;;;;;;;;;;;;
53076;"Guest House o Affittacamere";"Best view Trevi fountain";"Via del Lavatore";"44";"41.9008846";"12.4838901";;2;12;6;;;;;;;;;;"0039 06 6797317";;"0039 06 69790348";;;;;;;;;;;;;;;;;;;;;;;;;;;;;;;;;
133296;"Guest House o Affittacamere";"Best Western Apartment";"Via Caio Mario";"8";"41.90823";"12.46089";;3;5;;1;2;;;;;;;;;;;;;;;;;;;;;;;;;;;;;;;;;;;;;;;;;;;
118211;"Guest House o Affittacamere";Bettini;"Viale Opita Oppio";"76";"41.8608519";"12.5499401";;2;12;6;;;;;;;;;;;;;;;;;;;;;;;;;;;;;;;;;;;;;;;;;;;;;
303198;"Guest House o Affittacamere";"Beyond Colosseum guest house o affittacamere";"Via Merulana";"248";"41.894545";"12.500344";;1;9;4;;;;;;;;;;;;;;;;;;;;;;;;;;;;;;;;;;;;;;;;;;;;;
310770;"Guest House o Affittacamere";"Bibbi's House San Lorenzo";"Via dei Liburni";"14";"41.900069";"12.511984";;2;8;3;;1;2;;;"0039 351 8720110";"ccervelli68@gmail.com";;;;;;;;;;;;;;;;;;;;;;;;;;;;;;;;;;;;;;
76729;"Guest House o Affittacamere";"Bijou Rome";"Via del Casale Santarelli";"58";"41.8166283";"12.6144577";;3;4;3;;;;;;;;;;"0039 06 7900245";;;;;;;;;;;;;;;;;;;;;;;;;;;;;;;;;;;
330550;"Guest House o Affittacamere";Biondi;"Via Merulana";"227";"41.8927771387277";"12.501265098129304";;3;9;6;3;3;;;;"339 2773264";"biondi.giovanni1960@libero.it";;;;;;;;;;;;;;;;;;;;;;;;;;;;;;;;;;;;;;
171290;"Guest House o Affittacamere";"Biscione 2 HCF casa e appartamento per vacanze";"Via del Biscione";"11";"41.8957206";"12.4730403";;;;;;;;;;;;;;;;;;;;;;;;;;;;;;;;;;;;;;;;;;;;;;;;;
116831;"Guest House o Affittacamere";"Biscione 95";"Piazza del Biscione";"95";"41.8954433";"12.4733705";;2;7;3;;;;;;"0039 328 053 4893";;;;;;;;;;;;;;;;;;;;;;;;;;;;;;;;;;;;;;;
165320;"Guest House o Affittacamere";"Black and White Suites";"Via di Santa Maria del Pianto";"67";"41.8932556";"12.4767008";;3;;2;;;;;;"0039 328 029 2327";;;;;;;;;;;;;;;;;;;;;;;;;;;;;;;;;;;;;;;
155665;"Guest House o Affittacamere";"Black Rooms Colosseo - Guest House";"Via Labicana";"80";"41.8896272";"12.5000589";;3;5;;1;2;;;;;;;;;;;;;;;;;;;;;;;;;;;;;;;;;;;;;;;;;;;
327283;"Guest House o Affittacamere";"Bloom Apartments";"Via Principe Amedeo";"9";"41.900024638560275";"12.498153601176979";;2;15;6;;5;;;;"347 6031309";"INFO@BLOOMAPARTMENT.COM";;;;;;;;;;;;;;;;;;;;;;;;;;;;;;;;;;;;;;
117011;"Guest House o Affittacamere";Blu;"Via Baldo degli Ubaldi";"90";"41.8986962";"12.4328559";;2;6;;;3;;;;"0039 348 090 3745";;;;;;;;;;;;;;;;;;;;;;;;;;;;;;;;;;;;;;;
125759;"Guest House o Affittacamere";"Blu Tango Guest House";"Via del Boschetto";"97";"41.895729";"12.4909665";;3;4;;;2;;;;"0039 342 3931775";"info@blutangoguesthouse.it";;;;"www.blutangoguesthouse.it";;;;;;;;;;;;;;;;;;;;;;;;;;;;;;;;;;
138878;"Guest House o Affittacamere";"Blue Inn Family Suites";"Via Giosuè Carducci";"2";"41.9067096";"12.4950116";;3;6;;;;2;;;"0039 345 7186086";"info@blueinnluxurysuites.com";;;;"www.blueinnluxurysuites.com";;;;;;;;;;;;;;true;;;;;;;true;;;;;;;;;;;;;
128784;"Guest House o Affittacamere";"Blue Inn Luxury Suites";"Via Giosuè Carducci";"2";"41.907588";"12.494926";;3;10;;;5;;;;"0039 339 8201319";"info@blueinnluxurysuites.com";"www.facebook.com/blueinnrome";;;"www.blueinnluxurysuites.com";;;;;;;;;;;;;;;;;;;;;;;;;;;;;;;;;;
116921;"Guest House o Affittacamere";"Blue Rain";"Via Enrico Cialdini";"13";"41.8984911";"12.5031599";;3;14;;;1;4;;;;;;;"0039 06 45651031";;;;;;;;;;;;;;;;;;;;;;;;;;;;;;;;;;;
301418;"Guest House o Affittacamere";"Blue Whale Guest House o Affittacamere";"Via Principe Amedeo";"96";;;;3;5;3;;;;;;;;;;;;;;;;;;;;;;;;;;;;;;;;;;;;;;;;;;;;;
76731;"Guest House o Affittacamere";Bluehostel;"Via Carlo Alberto";"13";"41.8966147";"12.5002598";;3;10;5;;;;;;"0039 340 9258503 - 338 7817730";"info@bluehostel.it";;;"0039 06 92913490";"www.bluehostel.it";;;;;;;;;;;;;;;;;;;;;;;;;;;;;;;;;;
53077;"Guest House o Affittacamere";"BM Rooms";"Corso Vittorio Emanuele II";"173";"41.8970619";"12.4719445";;2;10;5;;;;;;;;;;"0039 06 20382587";;"0039 06 97746458";;;;;;;;;;;;;;;;;;;;;;;;;;;;;;;;;
312797;"Guest House o Affittacamere";"Bocca di Leone 63 Luxury Suites";"Via Bocca di Leone";"63";"41.905955";"12.480177";;3;8;4;;;;;;;;;;;;;;;;;;;;;;;;;;;;;;;;;;;;;;;;;;;;;
330068;"Guest House o Affittacamere";"Bohemiam Cosmo Suites";"Via Milazzo";"39";"41.90292892015226";"12.50558829812964";;3;6;3;;3;;;;"327 5544817";"romecosmopolitanguesthouse@gmail.com";;;;;;;;;;;;;;;;;;;;;;;;;;;;;;;;;;;;;;
118360;"Guest House o Affittacamere";"Bologna Guest House";"Piazza Bologna";"6";"41.9127769";"12.5212346";;3;10;5;;;;;;;;;;;;;;;;;;;;;;;;;;;;;;;;;;;;;;;;;;;;;
321724;"Guest House o Affittacamere";"Booking Inn Rome";"Via Palestro";"56";"41.90470708928774";"12.504746911588477";;3;8;3;;1;2;;;"366 3771690";"tanza2909@gmail.com";;;;;;;;;;;;;;;;;;;;;;;;;;;;;;;;;;;;;;
298749;"Guest House o Affittacamere";"Books guest house roma guest house o affittacamere";"Piazza di Santa Croce in Gerusalemme";"1";"41.888891";"12.514788";;3;8;4;;;;;;;;;;;;;;;;;;;;;;;;;;;;;;;;;;;;;;;;;;;;;
80966;"Guest House o Affittacamere";"Borghese Executive Suite";"Via Tevere";"15";"41.9135045";"12.4965709";;3;11;6;;;;;;;;;;;;;;;;;;;;;;;;;;;;;;;;;;;;;;;;;;;;;
124807;"Guest House o Affittacamere";"Borghese Guest House";"Via Sardegna";"55";"41.9092112";"12.4905604";;3;5;;1;2;;;;;;;;;;;;;;;;;;;;;;;;;;;;;;;;;;;;;;;;;;;
168985;"Guest House o Affittacamere";"Borghese House";"Via Mariano Fortuny";"6";"41.9145307";"12.4749189";;;4;2;;;;;;"0039 335 101 3640";;;;;;;;;;;;;;;;;;;;;;;;;;;;;;;;;;;;;;;
169377;"Guest House o Affittacamere";"Borghese Suites Guest House";"Via Emilia";"65";"41.9081307";"12.488478";;3;10;4;;;;;;"0039 340 6181672 - 328 4476744";"danielaogis@gmail.com";;;;;;;;;;;;;;;;;;;;;;;;;;;;;;;;;;;;;;
186219;"Guest House o Affittacamere";"Borghetto Cavalleggeri Guest House o affittacamere";"Via dei Cavalleggeri";"6";"41.8997296";"12.4550857";;2;3;2;;;;;;;"borghettocavalleggeri@gmail.com";;;;;;;;;;;;;;;;;;;;;;;;;;;;;;;;;;;;;;
177775;"Guest House o Affittacamere";"Borghetto di San Lorenzo Guest house o affittacamere";"Via dei Reti";"23";"41.8990961";"12.518106";;3;11;5;;;;;;;"petershouseresidence@gmail.com";;;"0039 06 4457289";;;;;;;;;;;;;;;;;;;;;;;;;;;;;;;;;;;
155537;"Guest House o Affittacamere";"Borghetto Guest House";"Via Appia Nuova";"165";"41.8810374";"12.5154153";;3;;5;;;;;;;;;;;;;;;;;;;;;;;;;;;;;;;;;;;;;;;;;;;;;
117081;"Guest House o Affittacamere";"Borgo di Torre Guidaccia";"Via Clarice Tartufari";"2";"41.757711";"12.438538";;3;12;6;;;;;;"0039 389 276 0421";;;;;;;;;;;;;;;;;;;;;;;;;;;;;;;;;;;;;;;
124793;"Guest House o Affittacamere";"Borgo Pio Suites Inn";"Vicolo del Farinone";"30";"41.9030003";"12.4592127";;2;9;;;3;1;;;"0039 389 1093852";"info@borgopiosuitesinn.com";;;"0039 06 90282939";"www.borgopiosuitesinn.com";"0039 06 99335379";;;;;;;;;;;;;true;;true;;;;;;;;;;;;;;;;;;
316429;"Guest House o Affittacamere";"Borgo Vaticano";"Viale Vaticano";"84";"41.906596";"12.450180";;3;9;4;;3;1;;;;"borgovaticano84@gmail.com";;;"0039 06 85386992";;;;;;;;;;;;;;;;;;;;;;;;;;;;;;;;;;;
177776;"Guest House o Affittacamere";"Borgogna Rooms Guest house o affittacamere";"Via Borgognona";"47";"41.9041814";"12.4794315";;2;8;4;;;;;;;"borgognonarooms@gmail.com";;;"0039 06 6794020";;;;;;;;;;;;;;;;;;;;;;;;;;;;;;;;;;;
303563;"Guest House o Affittacamere";"Borgonove Guest House o Affittacamere";"Via del Mascherino";"2";"41.903257";"12.458674";;2;11;6;;;;;;;;;;;;;;;;;;;;;;;;;;;;;;;;;;;;;;;;;;;;;
176531;"Guest House o Affittacamere";"BoRooms Guest house o affittacamere";"Borgo Pio";"203";"41.9039634";"12.4577004";;2;7;3;;;;;;"0039 339 6412344";"borooms203@gmail.com";"www.facebook.com/BoRooms/";;;;;;;;;;;;;;;;;;;;;;;;;;;;;;;;;;;;;
132603;"Guest House o Affittacamere";"Boutique Centrale Relais";"Via Tomacelli";"103";"41.904764";"12.4764735";;2;9;;;3;1;;;;;;;"0039 06 68892889";;;;;;;;;;;;;;;;;;;;;;;;;;;;;;;;;;;
116823;"Guest House o Affittacamere";"Boutique Rome Inn";"Via Toscana";"1";"41.9081863";"12.4920357";;1;13;;;5;1;;;;"info@romaboutiquehotel.it";;;"0039 06 42012023";"www.romaboutiquehotel.com";"0039 06 42392089";;;;;;;;;;;;;true;;;true;;;;true;;;;;;;;;;;;;
267167;"Guest House o Affittacamere";"Boutique Stop and Sea";"Viale Paolo Orlando";"7";"41.731681";"12.284031";;;9;4;;;;;;"320 855 8879";;;;;;;;;;;;;;;;;;;;;;;;;;;;;;;;;;;;;;;
331285;"Guest House o Affittacamere";Bqhousecolosseo;"Via Merulana";"13";"41.89651532433615";"12.499640148469725";;1;9;4;;;;;;;;;;;;;;;;;;;;;;;;;;;;;;;;;;;;;;;;;;;;;
278667;"Guest House o Affittacamere";"Brancaccio Luxury Suite  'Guest House o Affittacamere'";"Via Merulana";"43";"41.894731";"12.500712";;2;7;4;;;;;;;;;;;;;;;;;;;;;;;;;;;;;;;;;;;;;;;;;;;;;
76732;"Guest House o Affittacamere";"Brando e Giò";"Via Castelfidardo";"31";"41.9065381";"12.5008104";;3;5;4;;;;;;;"LuluPiacentini@gmail.com";;;"0039 06 45437212";"www.brandoegio.com";"0039 06 4464638";;;;;;;;;;;;;;;;;;;;;;;;;;;;;;;;;
322925;"Guest House o Affittacamere";"Break in Rome";"Via Chioggia";"3";"41.882380575332455";"12.523732686535622";;3;4;2;;2;;;;"392 1257470";"info@breakinrome.it";;;;;;;;;;;;;;;;;;;;;;;;;;;;;;;;;;;;;;
319319;"Guest House o Affittacamere";"Briseide Boutique Rooms";"Via Merulana";"259";"41.89553545153207";"12.4997719404983";;3;8;4;;4;;;;"339 7108260";"thaitasrl2020@gmail.com";;;;;;;;;;;;;;;;;;;;;;;;;;;;;;;;;;;;;;
53080;"Guest House o Affittacamere";Bullicante;"Via dell'Acqua Bullicante";"15/27";"41.8809705";"12.5428583";;2;10;5;;;;;;;;;;"0039 06 24416653";;;;;;;;;;;;;;;;;;;;;;;;;;;;;;;;;;;
75015;"Guest House o Affittacamere";"Bundi House";"Via Cavour";"295";"41.8938376";"12.4897439";;3;8;5;;;;;;;;;;"0039 06 4875295";;;;;;;;;;;;;;;;;;;;;;;;;;;;;;;;;;;
134791;"Guest House o Affittacamere";"Buonanotte Roma 2";"Via Rattazzi";"12";"41.8968295";"12.5024761";;2;7;;;2;1;;;;;;;;;;;;;;;;;;;;;;;;;;;;;;;;;;;;;;;;;;
165142;"Guest House o Affittacamere";"Buonarroti Guest House";"Via Buonarroti";"18";"41.8934468";"12.5021993";;3;8;;;4;;;;;;;;"0039 06 8797 9670";;;;;;;;;;;;;;;;;;;;;;;;;;;;;;;;;;;
2330;"Guest House o Affittacamere";"Buonarroti Home Guest house o affittacamere";"Via Carlo Alberto";"43";"41.8962077";"12.5013104";;2;9;5;;;;;;;"info@buonarrotihome.com";;;"0039 06 44704334";;"0039 06 44360687";;;;true;;;;;;;;true;true;;true;;;;;;;true;;;;;;;;;;;
117007;"Guest House o Affittacamere";"Buonarroti Suite";"Via Carlo Alberto";"43";"41.896127";"12.5012002";;3;12;;;6;;;;;"info@buonarrotihome.com";;;"0039 06 94379306";"www.buonarrotisuite.com/italiano/";"0039 06 44360687";;;;;;;;;;;;true;true;;true;true;;;;true;;;;;;;;;;;;;
116890;"Guest House o Affittacamere";"By Rome Suite";"Via Principe Amedeo";"92";"41.8985645";"12.5009901";;3;3;2;;;;;;;;;;;;;;;;;;;;;;;;;;;;;;;;;;;;;;;;;;;;;
53081;"Guest House o Affittacamere";"Bye Rome";"Via Principe Amedeo";"92/94/96";"41.8985440";"12.5008661";;2;9;5;;;;;;"0039 347 8391604 - 347 8315571";"buone_vacanze@virgilio.it";;;"0039 06 4460160";"www.byerome.it";"0039 06 4549887";;;;;;;;;;;;;;;;;;;;;;;;;;;;;;;;;
137428;"Guest House o Affittacamere";"C'est la vie suites";"Via Bernardino Telesio";"16";"41.9111892";"12.4501098";;2;9;;3;3;;;;"0039 340 3655450";"info@romacestlavie.com";"www.facebook.com/CestlaVierooms";;"0039 06 95585066";"www.romacestlavie.com/index.php/it/";"0039 06 89571511";;;;;;;;;;;;;;;true;true;;true;;true;;;;;;;;;;;;;
165282;"Guest House o Affittacamere";"C Luxury Palace & Apartment";"Via Statilia";"31";"41.8910707";"12.5135888";;2;;;;;2;;;;;;;;"www.cluxurypalaceapartmentsrome.com/italiano/";;;;;;;;;;;;;;;;;;;;;;;;;;;;;;;;;;
186232;"Guest House o Affittacamere";"C107 Design Guest house o affittacamere";"Piazza Benedetto Cairoli";"107";"41.8942362";"12.4744709";;3;13;5;;;;;;;;;;;;;;;;;;;;;;;;;;;;;;;;;;;;;;;;;;;;;
130302;"Guest House o Affittacamere";"Caesar Place";"Via Fornovo";"3";"41.9126368";"12.4685681";;2;15;6;1;1;4;;;"0039 338 8137478 - 338 1854853";"info@caesarplaceroma.com";;;;"www.caesarplaceroma.com";;;;;;;;;;;;;true;true;;true;true;;;;true;;;;;;;;;;;;;
76737;"Guest House o Affittacamere";Calamatta;"Via Luigi Calamatta";"16";"41.9046966";"12.4721138";;3;5;3;;;;;;"0039 346 7289930";"bbcalamatta@gmail.com";;;;"www.bbcalamatta.it";"0039 06 45494414";;;;;;;;;;;;;true;;true;true;;;;;;;;;;;;;;;;;
316425;"Guest House o Affittacamere";"Calatafimi Rooms";"Via Calatafimi";"41";"41.905102";"12.500509";;3;7;3;;2;1;;;;;;;;;;;;;;;;;;;;;;;;;;;;;;;;;;;;;;;;;;
53082;"Guest House o Affittacamere";Caligola;"Via Benedetto Musolino";"23";"41.8823037";"12.4696918";;1;9;5;;;;;;;"info@caligolaresort.it";;;"0039 06 32090055";"www.caligolaresort.it";"0039 06 89281265 - 06 32090056";;;;;;;;;;;;;;;;;;;;;;;;;;;;;;;;;
2408;"Guest House o Affittacamere";"Camere del Cavaliere";"Via Buccari";"1";"41.9119562";"12.4533405";;2;7;3;;;;;;;;;;"0039 06 39731558";;;;;;;;;;;;;;;true;;true;;;;;;;;;;;;;;;;;;
136191;"Guest House o Affittacamere";"Campanile Suite";"Via Ostiense";"263";"41.8563953";"12.4787872";;3;13;;;5;1;;;;;;;;;;;;;;;;;;;;;;;;;;;;;;;;;;;;;;;;;;
140456;"Guest House o Affittacamere";"Campo de Fiori 27 Luxury Suites";"Campo Dè Fiori";"27";"41.895963";"12.4718229";;3;11;;;4;1;;;"0039 335 437211";"welcome@campodefiori27.it";;;"0039 06 68308767";"www.campodefiori27.it";"0039 06 68308767";;;;;;;;;;;;;;;;true;;;;;;;;;;;;;;;;;
312322;"Guest House o Affittacamere";"Campo de' Fiori 34";"Piazza Pollarola";"34";"41.895934";"12.472931";;2;8;4;;4;;;;;;"https://www.facebook.com/capodefiori34";"https://www.instagram.com/campodefiori34";"0039 06 83921879";"https://www.campodefiori34.com/";;;;;;;;;;;;;;;;;true;;;;;;;;;;;;;;;;;
117341;"Guest House o Affittacamere";"Campo Marzio Luxury Suite";"Via di Campo Marzio";"52";"41.9026647";"12.4777704";;3;10;;;5;;;;;"info@campomarziosuites.com";;;"0039 06 87679475";"www.suites4rome.com";;;;;;;;;;;;;;;;;;;;;;;;;;;;;;;;;;
53087;"Guest House o Affittacamere";"Canali ai tre archi";"Via dei Tre Archi";"13";"41.9005318";"12.4718911";;2;7;4;;;;;;;;;;"0039 06 45439417";;"0039 06 45459598";;;;;;;;;;;;;;;;;;;;;;;;;;;;;;;;;
53088;"Guest House o Affittacamere";"Cancelleria 77";"Piazza della Cancelleria";"77";"41.8963242";"12.4724391";;1;8;5;;;;;;;;;;;;;;;;;;;;;;;;;;;;;;;;;;;;;;;;;;;;;
164542;"Guest House o Affittacamere";"Cancelleria Comfort Home";"Vicolo della Cancelleria";"35";"41.89786";"12.47147";;;8;;;4;;;;;;;;;;;;;;;;;;;;;;;;;;;;;;;;;;;;;;;;;;;
155928;"Guest House o Affittacamere";"Cancelleria Dieci";"Vicolo della Cancelleria";"10";"41.8978825";"12.4718761";;2;12;;;3;2;;;"0039 333 6674918";"info@cancelleriadieci.com";;;;"www.cancelleriadieci.com";;;;;;;;;;;;;;;;true;true;;;;;;;;;;;;;;;;;
59273;"Guest House o Affittacamere";"Candia Inn";"Via Candia";"77";"41.9080936";"12.4528404";;3;6;3;;3;;;;"0039 334 3892102";"candiainn@gmail.com";;;"0039 06 64525824";"www.candiainn.com";"0039 06 64525824";;;;;;;;;;;;true;true;;true;true;;;;;;true;;;;;;;;;;;
155507;"Guest House o Affittacamere";"Candia Vatican Suites";"Via Candia";"121";"41.9075297";"12.4513527";;3;4;;2;1;;;;"0039 392 009 1596";;;;;;;;;;;;;;;;;;;;;;;;;;;;;;;;;;;;;;;
168986;"Guest House o Affittacamere";"Candyahouse Guest House o Affittacamere";"Via Candia";"143";"41.9074549";"12.4503007";;2;4;;;2;;;;;;"http://www.facebook.com/CandyaHouse-591458521002400/info/";;;;;;;;;;;;;;;;;;;;;;;;;;;;;;;;;;;;;
116955;"Guest House o Affittacamere";"Canova Tadolini Luxury Rooms";"Via del Babuino";"151";"41.9076377";"12.4797659";;2;11;5;;;;;;;"info@canovatadoliniroma.com";"https://www.facebook.com/pages/Residenza-Canova-Tadolini/122357514544114";;"0039 06 32609493";"www.canovatadoliniroma.com";"0039 06 3225329";;;;;;;true;;;;;;true;;true;true;;;;;;;;;;;;;;;;;
116996;"Guest House o Affittacamere";"Canova Tadolini Relais";"Via del Babuino";"55";"41.9082128";"12.4793004";;3;9;5;;;;;;;;;;;;;;;;;;;;;;;;;;;;;;;;;;;;;;;;;;;;;
117021;"Guest House o Affittacamere";"Canova Tadolini Suites";"Via del Babuino";"151";"41.9076377";"12.4797659";;2;5;3;;;;;;;"info@canovatadoliniroma.com";;;"0039 06 32609493";"www.canovatadoliniroma.com/?lang=it";;;;;;;;;;;;;;;;;;;;;;;;;;;;;;;;;;
82943;"Guest House o Affittacamere";"Caos Calmo";"Via Luigi Vittorio Bertarelli";"11";"41.9077491";"12.5349412";;3;7;4;;;;;;"0039 328 2519155";"info@caoscalmo.it";"https://www.facebook.com/Caos-Calmo-Bed-Breakfast-709249719215219/?rf=200221950362934";;;"http://www.bbcaoscalmo.it/";;;;;;;;;;;;;;;;;;;;;;;;;;;;;;;;;;
155735;"Guest House o Affittacamere";"Capannelle Guest House";"Via Appia Nuova";"1262";"41.8207764";"12.5663467";;3;;;;3;1;;;;;;;;;;;;;;;;;;;;;;;;;;;;;;;;;;;;;;;;;;
138944;"Guest House o Affittacamere";"Capital Suite";"Via Cicerone";"44";"41.9070971";"12.468569";;3;10;;;5;;;;;"info@capital-suite.it";;;"0039 06 87763202";"www.capital-suite.it";;;;;;;;;;;;;;true;;;true;;;;true;;;;;;;;;;;;;
53092;"Guest House o Affittacamere";Capitolium;"Via Montebello";"104";"41.9063925";"12.5013250";;3;12;6;;;;;;;"hotel@capitoliumrooms.com";;;"0039 06 4464917";"www.capitoliumrooms.com";"0039 06 49382094";;;;;;;;;;;;;;;;;;;;;;;;;;;;;;;;;
315162;"Guest House o Affittacamere";"Cappellari 41 Jewel";"Via dei Cappellari";"41";"41.896269";"12.470399";;3;3;2;1;1;;;;"0039 329 3606541";"INFO@ARBELASRL.IT";;;;;;;;;;;;;;;;;;;;;;;;;;;;;;;;;;;;;;
182841;"Guest House o Affittacamere";"Cappellini Guest house";"Via Alfredo Cappellini";"29";"41.897305";"12.5049";;3;8;4;;;;;;;;;;;;;;;;;;;;;;;;;;;;;;;;;;;;;;;;;;;;;
43851;"Guest House o Affittacamere";Cappuccino;"Via Livorno";"1";"41.9141207";"12.5214105";;3;8;4;;;;;;"0039 338 9552828";"info@bedbreakfastandcappuccino.com";;;"0039 06 68392105";"www.bedbreakfastandcappuccino.com";;;;;;;;;;;;;;;;true;true;;;;;;;;;;;;;;;;;
328251;"Guest House o Affittacamere";"Capranica Private Suites";"Via del Collegio Capranica";"4";"41.90029774800437";"12.47734728692544";;2;18;6;;;;;;;;;;;;;;;;;;;;;;;;;;;;;;;;;;;;;;;;;;;;;
141716;"Guest House o Affittacamere";"Capricci Romani";"Via di Porta Castello";"33";"41.9046506";"12.4633639";;3;9;4;;;;;;;"info@bebcapricciromani.com";;;"0039 06 68802684";"www.bebcapricciromani.com/index.php/it/";"0039 06 89280958";;;;;;;;;;;;;;;true;true;;;;true;;;;;;;;;;;;;
328423;"Guest House o Affittacamere";"Captain Home Roma";"Via Giovanni Giolitti";"177";"41.89802280684401";"12.504329418203008";;2;3;2;1;1;;;;;;;;;;;;;;;;;;;;;;;;;;;;;;;;;;;;;;;;;;;
15853;"Guest House o Affittacamere";"Caput Mundi";"Via Rattazzi";"65";"41.8982648";"12.5039643";;2;14;6;;;;;;;;;;"0039 06 4451520";;"0039 06 4451520";;;;;;;;;;;;;true;;true;;;;;;;;;;;;;;;;;;
168987;"Guest House o Affittacamere";"Caracalla Immobilare S.R.L.S. Guest house o affittacamere";"Via Pandosia";"19";"41.8802904";"12.5044944";;3;;;;;;;;;;;;;;;;;;;;;;;;;;;;;;;;;;;;;;;;;;;;;;;
122716;"Guest House o Affittacamere";"Caracciolo Guest House";"Via Francesco Caracciolo";"6";"41.9082152";"12.4501603";;2;7;4;;;;;;"0039 328 8480715";;"www.facebook.com/pages/Caracciolo-Guest-House/849591061721800";;;;;;;;;;;;;;;;;;;;;;;;;;;;;;;;;;;;;
53097;"Guest House o Affittacamere";"Caramanna Salvatore";"Via dei Mille";"6";"41.9040516";"12.5028835";;2;8;5;;;;;;;;;;;;;;;;;;;;;;;;;;;;;;;;;;;;;;;;;;;;;
81310;"Guest House o Affittacamere";"Cardinale Suites";"Via Cardinale Merry Del Val";"20/21";"41.8874100";"12.4721032";;3;4;2;;;;;;;;;;;;;;;;;;;;;;;;;;;;;;;;;;;;;;;;;;;;;
116971;"Guest House o Affittacamere";Carina;"Via Bixio";"74";"41.8928685";"12.5080013";;3;;;;;;;;;;;;;;;;;;;;;;;;;;;;;;;;;;;;;;;;;;;;;;;
53101;"Guest House o Affittacamere";"Carlo Alberto House";"Via Carlo Alberto";"63";"41.8955990";"12.5024132";;2;12;5;;;;;;"0039 346 5023103";"info@carloalbertohouse.com";;;"0039 06 96846768";"www.carloalbertohouse.com";;;;;;;;;;;;;;;;;;;;;;;;;;;;;;;;;;
168988;"Guest House o Affittacamere";"Carlo residenza";"Via Dei Serpenti";"29";"41.8958922";"12.4901758";;;5;2;;;;;;;;;;;;;;;;;;;;;;;;;;;;;;;;;;;;;;;;;;;;;
117119;"Guest House o Affittacamere";"Carolina Suite";"Via Milazzo";"14";"41.9019097";"12.5041195";;3;7;4;;;;;;"0039 340 1174303 - 329 3130292";"info@bnbCaroline.it";;;;"www.bnbcaroline.it/Index.aspx";;;;;;;;;;;;;;;;;;;;;;;;;;;;;;;;;;
330069;"Guest House o Affittacamere";"Carrara24";"Via Francesco Carrara";"24";"41.91213591554527";"12.474040140457475";;3;16;6;;5;;;;;"amministrazione.carrara24@gmail.com";;;"06 87776155";;;;;;;;;;;;;;;;;;;;;;;;;;;;;;;;;;;
117360;"Guest House o Affittacamere";"Casa Anita";"Via degli Enotri";"16";"41.8972795";"12.5188845";;2;6;;;3;;;;"0039 349 325 7848";"rachelesechi@gmail.com";;;;"www.casaanitaroma.com";"0039 06 90127954";;;;;;;;;;;;;;;true;true;;;;true;;;;;;;;;;;;;
155969;"Guest House o Affittacamere";"Casa Arpinelli";"Via della Panetteria";"1";"41.9025241";"12.4852173";;2;10;;;5;;;;;;;;;;;;;;;;;;;;;;;;;;;;;;;;;;;;;;;;;;;
130300;"Guest House o Affittacamere";"Casa Barberini";"Via della Purificazione";"69";"41.9048741";"12.4870748";;3;15;;;;;;;"0039 389 6466792";;;;;;;;;;;;;;;;;;;;;;;;;;;;;;;;;;;;;;;
307056;"Guest House o Affittacamere";"Casa Bella Adriano's Temple";"Via di Pietra";"70";"41.900109";"12.479954";;3;10;4;1;1;1;;;;"giuseppe.daghino@gmail.com";;;"0039 06 64770090";"https://casa-bella-adirano-39-s-temple-it.book.direct/it-it";;;;;;;;;;;;;;;;;;;;;;;;;;;;;;;;;;
